City_ID,City,Lat,Lng,Humidity,Temp,Clouds,Wind,Country,Date
0,Port Mathurin,-19.6833,63.4167,73,79.65,19,20.78,MU,1681846926
1,Ribeira Grande,38.5167,-28.7,72,59.4,40,13.8,PT,1681846926
2,Fort St. John,56.2499,-120.8529,29,48.09,75,14.97,CA,1681846926
3,Cockburn Town,21.4612,-71.1419,74,78.55,30,12.19,TC,1681846926
4,Bilibino,68.0546,166.4372,88,16.27,100,3.02,RU,1681846881
5,Arkhangel'Sk,64.5401,40.5433,100,28.11,0,2.24,RU,1681846813
6,Klaksvik,62.2266,-6.589,90,49.12,86,15.79,FO,1681846927
7,Fale Old Settlement,-9.3852,-171.2468,76,82.49,80,7.58,TK,1681846927
8,Nova Sintra,14.8667,-24.7167,78,68.9,88,20.27,CV,1681846927
9,Adamstown,-25.066,-130.1015,70,76.66,5,14.85,PN,1681846820
10,Port-Aux-Francais,-49.35,70.2167,83,42.15,86,35.5,TF,1681846874
11,Keta,5.9179,0.9879,79,84.42,100,9.89,GH,1681846927
12,Bredasdorp,-34.5322,20.0403,89,59.02,51,3.15,ZA,1681846829
13,Waitangi,-43.9535,-176.5597,86,59.83,100,5.01,NZ,1681846843
14,Anadyr,64.75,177.4833,80,28.9,75,13.42,RU,1681846873
15,Wailua Homesteads,22.0669,-159.378,93,68.18,100,12.66,US,1681846828
16,Yellowknife,62.456,-114.3525,52,41.52,0,13.8,CA,1681846667
17,Ushuaia,-54.8,-68.3,65,44.26,20,12.66,AR,1681846829
18,Cole Harbour,44.6724,-63.4751,87,51.03,75,12.66,CA,1681846851
19,Karratha,-20.7377,116.8463,44,74.71,5,9.8,AU,1681846928
20,Roxas,11.5853,122.7511,84,77.14,60,5.77,PH,1681846929
21,Chitipa,-9.7024,33.2697,96,61.52,76,3.18,MW,1681846929
22,Puerto Natales,-51.7236,-72.4875,58,55.85,75,5.75,CL,1681846893
23,Nuuk,64.1835,-51.7216,93,27.21,100,11.5,GL,1681846903
24,Ilulissat,69.2167,-51.1,80,28.42,100,8.05,GL,1681846815
25,Yeniseysk,58.4497,92.1703,87,8.96,100,3.89,RU,1681846930
26,Stanley,54.868,-1.6985,92,43.57,0,8.05,GB,1681846812
27,Yuzhno-Kurilsk,44.0306,145.8556,77,37.33,100,1.39,RU,1681846899
28,Guerrero Negro,27.9769,-114.0611,71,59.45,100,20.83,MX,1681846850
29,West Island,-12.1568,96.8225,78,80.58,75,12.66,CC,1681846566
30,Gamba,-2.65,10.0,88,80.01,100,3.71,GA,1681846931
31,Bodaybo,57.8506,114.1933,95,18.41,100,1.16,RU,1681846932
32,East London,-33.0153,27.9116,79,68.95,0,6.02,ZA,1681846808
33,Hang Dong,18.687,98.9194,51,85.66,0,2.3,TH,1681846932
34,Arraial Do Cabo,-22.9661,-42.0278,78,80.46,75,9.22,BR,1681846892
35,Iqaluit,63.7506,-68.5145,71,7.7,75,18.41,CA,1681846835
36,Menongue,-14.6585,17.691,74,66.2,95,4.52,AO,1681846851
37,Bumpe,7.8919,-11.9025,79,81.68,100,4.76,SL,1681846933
38,Bethel,41.3712,-73.414,47,53.04,100,17.27,US,1681846816
39,Thetford,52.4167,0.75,84,48.9,100,17.27,GB,1681846933
40,Albany,42.6001,-73.9662,63,47.23,100,1.99,US,1681846920
41,Richards Bay,-28.783,32.0377,90,67.23,0,7.74,ZA,1681846889
42,Bamboo Flat,11.7,92.7167,83,81.64,94,6.55,IN,1681846934
43,Remire-Montjoly,4.9167,-52.2667,89,78.84,75,3.44,GF,1681846869
44,Namtsy,62.7161,129.6658,97,17.56,100,4.07,RU,1681846868
45,West Lafayette,40.4259,-86.9081,43,57.22,0,9.22,US,1681846919
46,Blackmans Bay,-43.0167,147.3167,80,50.67,91,5.06,AU,1681846815
47,Dalbandin,28.8947,64.4101,30,68.05,100,5.7,PK,1681846935
48,Brisas De Zicatela,15.8369,-97.0419,66,90.12,0,13.8,MX,1681846881
49,Iskateley,67.6803,53.1512,91,22.78,90,6.8,RU,1681846879
50,Awjilah,29.1081,21.2869,34,67.77,95,18.1,LY,1681846861
51,Panadura,6.7132,79.9026,81,80.56,7,6.67,LK,1681846935
52,Jamestown,42.097,-79.2353,76,34.59,100,21.85,US,1681846582
53,Namibe,-15.1961,12.1522,81,76.57,11,13.31,AO,1681846858
54,Extrema,-22.8547,-46.3183,95,68.81,100,11.68,BR,1681846936
55,Hithadhoo,-0.6,73.0833,70,83.59,100,5.08,MV,1681846809
56,Grytviken,-54.2811,-36.5092,84,36.07,84,0.78,GS,1681846816
57,Minas De Marcona,-15.2119,-75.1103,61,67.75,74,19.24,PE,1681846899
58,Sao Joao Da Barra,-21.6403,-41.0511,78,87.89,20,9.06,BR,1681846652
59,Edinburgh Of The Seven Seas,-37.0676,-12.3116,60,59.02,91,12.86,SH,1681846566
60,Olonkinbyen,70.9221,-8.7187,97,32.76,97,14.07,SJ,1681846838
61,Merizo Village,13.2658,144.6691,86,79.18,53,21.23,GU,1681846937
62,Bima,-8.4667,118.7167,95,75.15,56,3.44,ID,1681846937
63,Chateau-Renault,47.5919,0.9114,87,51.82,7,8.14,FR,1681846937
64,Vadso,70.0744,29.7487,70,39.36,20,11.5,NO,1681846896
65,Tolanaro,-25.0319,46.9987,88,75.27,20,13.8,MG,1681846938
66,Thompson,55.7435,-97.8558,29,30.36,20,6.91,CA,1681846829
67,Rikaze,29.25,88.8833,37,43.18,0,4.72,CN,1681846837
68,Kirensk,57.7853,108.1119,77,22.17,100,9.93,RU,1681846938
69,Chonchi,-42.6128,-73.8092,93,60.12,100,3.53,CL,1681846841
70,Labasa,-16.4167,179.3833,92,77.76,100,8.72,FJ,1681846938
71,Kota Kinabalu,5.9749,116.0724,89,78.78,20,4.61,MY,1681846939
72,Constantia,44.1833,28.65,87,50.68,100,4.52,RO,1681846939
73,Okeho,8.0333,3.35,85,74.89,95,4.88,NG,1681846939
74,Lincoln City,44.9582,-124.0179,91,43.48,100,11.01,US,1681846939
75,Longyearbyen,78.2186,15.6401,93,31.84,100,8.05,SJ,1681846834
76,Enewetak,11.3474,162.3373,75,80.51,100,20.18,MH,1681846827
77,Port Elizabeth,-33.918,25.5701,96,65.01,20,1.14,ZA,1681846830
78,Vorgashor,67.5833,63.95,98,-7.64,18,5.79,RU,1681846847
79,Invercargill,-46.4,168.35,82,53.02,100,1.99,NZ,1681846834
80,Mildura,-34.2,142.15,89,55.08,2,12.26,AU,1681846940
81,Puerto Deseado,-47.7503,-65.8938,59,52.27,98,28.27,AR,1681846940
82,Lompoc,34.6391,-120.4579,68,59.77,20,18.41,US,1681846852
83,Afaahiti,-17.75,-149.2833,76,82.27,82,18.5,PF,1681846566
84,Bouillon,49.7932,5.067,75,53.85,100,13.15,BE,1681846941
85,Kavieng,-2.5744,150.7967,74,81.1,57,1.34,PG,1681846941
86,Ust-Nera,64.5667,143.2,98,5.85,94,2.3,RU,1681846856
87,Maputo,-25.9653,32.5892,80,74.23,0,9.22,MZ,1681846677
88,College,64.8569,-147.8028,58,24.13,75,16.11,US,1681846846
89,Tsiombe,-25.3,45.4833,80,73.4,15,14.85,MG,1681846860
90,Hanzhong,33.0728,107.0303,76,65.61,46,0.6,CN,1681846942
91,Betio Village,1.358,172.9211,75,82.44,91,9.51,KI,1681846840
92,Port Alfred,-33.5906,26.891,96,63.18,0,8.3,ZA,1681846820
93,Pokhara,28.2333,83.9833,23,74.97,0,7.87,NP,1681846821
94,Howrah,22.5892,88.3103,84,86.0,20,8.05,IN,1681846888
95,Touros,-5.1989,-35.4608,79,80.73,74,8.19,BR,1681846943
96,Severo-Yeniseyskiy,60.3725,93.0408,95,2.7,100,5.59,RU,1681846943
97,Bismarck,46.8083,-100.7837,46,48.31,0,25.32,US,1681846797
98,Hammerfest,70.6634,23.6821,81,41.45,75,11.5,NO,1681846943
99,Coahuayana De Hidalgo,18.7,-103.6583,45,88.34,55,8.77,MX,1681846886
100,Laufach,50.0167,9.3,82,50.02,97,12.01,DE,1681846943
101,Strathmore,51.0501,-113.3852,17,50.14,100,12.66,CA,1681846944
102,Singtam,27.2333,88.5,35,74.82,3,5.59,IN,1681846944
103,Saint Augustine Beach,29.8505,-81.2654,43,73.31,0,11.5,US,1681846944
104,Nyurba,63.2842,118.3319,98,2.82,95,4.18,RU,1681846862
105,Josenii Bargaului,47.2167,24.6833,84,42.67,100,6.6,RO,1681846944
106,Abepura,-2.6333,140.5833,83,76.01,20,0.0,ID,1681846945
107,Mumbwa,-14.9783,27.0619,66,67.19,38,7.29,ZM,1681846945
108,Awash,8.9833,40.1667,54,76.17,1,3.56,ET,1681846945
109,Avarua,-21.2078,-159.775,78,77.05,75,13.8,CK,1681846840
110,Hermanus,-34.4187,19.2345,81,55.8,59,6.76,ZA,1681846849
111,Kangding,30.0513,101.9603,89,50.11,38,2.13,CN,1681846946
112,Rosetta,31.4044,30.4164,81,67.86,100,6.71,EG,1681846946
113,Pontevedra,42.431,-8.6444,66,68.9,26,1.9,ES,1681846704
114,Howard Springs,-12.497,131.047,97,62.2,17,5.57,AU,1681846946
115,Marataizes,-21.0433,-40.8244,79,81.36,31,9.46,BR,1681846946
116,Paveh,35.0434,46.3565,57,54.12,30,1.1,IR,1681846947
117,Rio Grande,-32.035,-52.0986,39,75.31,81,14.09,BR,1681846884
118,Atafu Village,-8.5421,-172.5159,76,82.31,76,6.46,TK,1681846824
119,Prado,-17.3411,-39.2208,83,79.9,12,10.69,BR,1681846947
120,Vorkuta,67.5,64.0,99,-7.19,19,5.86,RU,1681846880
121,Qaqortoq,60.7167,-46.0333,90,31.86,24,3.0,GL,1681846844
122,Lihue,21.9789,-159.3672,94,69.21,100,12.66,US,1681846855
123,Shingu,33.7333,135.9833,99,61.7,100,3.0,JP,1681846871
124,Meads,38.4126,-82.7091,24,66.99,0,14.97,US,1681846948
125,Broome,42.2506,-75.833,57,43.93,100,18.41,US,1681846948
126,Haiku-Pauwela,20.9219,-156.3051,64,77.86,20,5.01,US,1681846876
127,Markovo,57.3206,107.0881,81,20.35,100,9.48,RU,1681846948
128,Kirkwall,58.9848,-2.9587,87,46.45,0,9.22,GB,1681846949
129,Carnarvon,-24.8667,113.6333,44,74.03,3,17.31,AU,1681846875
130,Hong Kong,22.2855,114.1577,87,79.95,42,11.01,HK,1681846927
131,Mount Isa,-20.7333,139.5,77,67.77,100,10.36,AU,1681846835
132,Port Lincoln,-34.7333,135.8667,65,57.43,39,12.77,AU,1681846936
133,Darnah,32.767,22.6367,73,60.42,0,13.4,LY,1681846950
134,Kodiak,57.79,-152.4072,48,35.11,0,13.8,US,1681846822
135,Zambezi,-13.5432,23.1047,75,66.25,23,5.5,ZM,1681846950
136,Isafjordur,66.0755,-23.124,71,51.84,100,5.75,IS,1681846836
137,Xilin Hot,43.9667,116.0333,21,56.52,65,16.96,CN,1681846950
138,Talnakh,69.4865,88.3972,85,-2.79,24,1.7,RU,1681846822
139,Yanchep,-31.55,115.6833,58,57.07,0,12.84,AU,1681846951
140,Chake Chake,-5.2459,39.7666,91,76.96,100,11.45,TZ,1681846951
141,Kiruna,67.8557,20.2251,75,36.52,40,3.44,SE,1681846951
142,Taroa,8.7058,171.2275,81,80.02,100,16.04,MH,1681846951
143,Strehaia,44.6167,23.2,90,47.59,100,2.04,RO,1681846952
144,Kariba,-16.5167,28.8,58,72.7,40,6.4,ZW,1681846952
145,San Jose Del Cabo,23.0589,-109.6977,58,80.37,40,16.11,MX,1681846823
146,Saipan,15.1355,145.701,100,79.65,20,13.8,MP,1681846821
147,Cabo San Lucas,22.8909,-109.9124,50,79.45,40,11.5,MX,1681846842
148,Prades,42.5833,2.1667,73,39.09,71,3.53,FR,1681846953
149,Polyarnyy,69.1989,33.4478,89,31.57,100,10.4,RU,1681846844
150,Argostolion,38.1811,20.489,84,55.02,17,4.47,GR,1681846953
151,Swakopmund,-22.6833,14.5333,71,68.56,33,1.21,NA,1681846860
152,Bulgan,48.8125,103.5347,33,28.49,64,18.92,MN,1681846845
153,Aasiaat,68.7098,-52.8699,89,22.73,100,11.79,GL,1681846825
154,Puerto Ayora,-0.7393,-90.3518,88,83.55,84,5.01,EC,1681846848
155,Las Varillas,-31.8721,-62.7195,27,78.33,40,17.4,AR,1681846954
156,Lauro De Freitas,-12.8944,-38.3272,70,86.02,40,11.5,BR,1681846954
157,Niquero,20.0431,-77.5828,63,83.55,85,5.7,CU,1681846954
158,Klyuchi,52.2667,79.1667,96,26.35,100,11.21,RU,1681846954
159,Tiksi,71.6872,128.8694,100,-1.7,100,6.04,RU,1681846831
160,Qusmuryn,52.4503,64.6311,64,41.54,95,0.94,KZ,1681846955
161,Antsiranana,-12.2787,49.2917,81,77.94,18,11.65,MG,1681846955
162,Cambria,35.5641,-121.0808,77,59.47,19,5.99,US,1681846955
163,Pandan,14.0453,124.1694,84,78.44,82,6.64,PH,1681846880
164,Zhalantun,48.0,122.7167,50,35.83,84,4.0,CN,1681846955
165,Hermosillo,29.0667,-110.9667,20,84.07,75,10.0,MX,1681846771
166,Hagi,34.4,131.4167,96,61.18,99,4.25,JP,1681846956
167,Mar Del Plata,-38.0023,-57.5575,41,64.15,0,14.97,AR,1681846856
168,Punta Arenas,-53.15,-70.9167,71,48.22,75,13.8,CL,1681846817
169,Deols,46.8293,1.7043,81,48.29,0,9.22,FR,1681846956
170,Aioun,16.6614,-9.6149,16,95.58,99,9.91,MR,1681846957
171,Rehoboth,-23.3167,17.0833,39,71.19,93,9.31,NA,1681846957
172,Tucuma,-0.1833,-50.05,88,76.44,100,5.39,BR,1681846957
173,Parvatsar,26.8833,74.7667,48,77.16,90,13.87,IN,1681846957
174,Badger,64.8,-147.5333,58,24.73,100,16.11,US,1681846816
175,Udachny,66.4167,112.4,73,21.45,100,11.3,RU,1681846816
176,Hawaiian Paradise Park,19.5933,-154.9731,85,75.97,20,11.5,US,1681846821
177,Islamorada,24.9243,-80.6278,74,79.23,0,10.0,US,1681846898
178,Ailuk,10.2197,169.9797,79,80.46,100,16.62,MH,1681846958
179,Sitka,57.0531,-135.33,56,42.69,20,4.61,US,1681846824
180,Grahamstown,-33.3042,26.5328,94,56.95,0,2.75,ZA,1681846958
181,Tazovsky,67.4667,78.7,92,5.97,77,8.66,RU,1681846834
182,Burley,42.5357,-113.7928,75,33.53,100,24.0,US,1681846937
183,Saint-Philippe,-21.3585,55.7679,81,76.59,39,11.7,RE,1681846958
184,Aykhal,66.0,111.5,96,18.14,100,10.87,RU,1681846830
185,Konarka,19.9,86.1167,81,82.09,0,14.88,IN,1681846959
186,Camana,-16.6228,-72.7111,72,72.97,95,10.33,PE,1681846959
187,Takoradi,4.8845,-1.7554,83,81.57,100,7.11,GH,1681846849
188,Buncrana,55.1333,-7.45,82,55.17,2,6.26,IE,1681846959
189,Piacabucu,-10.4056,-36.4344,77,81.18,93,9.55,BR,1681846960
190,Khasab,26.1799,56.2477,43,76.96,2,8.66,OM,1681846960
191,Gien,47.6933,2.6309,95,50.5,35,7.67,FR,1681846960
192,Gadzhiyevo,69.2551,33.3362,88,32.18,100,11.16,RU,1681846849
193,La Foa,-21.7108,165.8276,87,75.51,97,5.48,NC,1681846960
194,Acajutla,13.5928,-89.8275,58,86.99,93,10.58,SV,1681846874
195,Budva,42.2864,18.84,95,56.12,100,2.3,ME,1681846961
196,Cabedelo,-6.9811,-34.8339,79,84.87,96,6.93,BR,1681846961
197,Rakovski,42.3,24.9667,89,50.56,100,6.78,BG,1681846961
198,Pathein,16.7833,94.7333,85,81.1,33,9.84,MM,1681846859
199,Margaret River,-33.95,115.0667,82,51.98,0,12.37,AU,1681846841
200,St. John'S,47.5649,-52.7093,83,32.54,75,12.66,CA,1681846877
201,Weno,7.4515,151.8468,79,81.81,100,19.17,FM,1681846865
202,Fada,9.5667,8.3,66,75.99,100,3.67,NG,1681846962
203,Sandnessjoen,66.0217,12.6316,69,46.02,75,1.99,NO,1681846962
204,Valdosta,30.8327,-83.2785,22,78.96,0,5.75,US,1681846901
205,Sarmiento,-45.5882,-69.07,43,63.64,100,20.09,AR,1681846962
206,Tura,25.5198,90.2201,48,84.22,3,12.15,IN,1681846841
207,Embi,48.8264,58.1442,61,42.39,17,5.5,KZ,1681846870
208,Susuman,62.7833,148.1667,100,-1.19,90,1.95,RU,1681846963
209,San Vicente De Canete,-13.0751,-76.3835,72,76.96,32,9.69,PE,1681846963
210,Carlisle,40.2015,-77.1889,41,54.39,95,8.01,US,1681846963
211,Tongouson,5.0214,120.1328,76,82.72,13,6.53,PH,1681846963
212,Katsuren-Haebaru,26.3369,127.8719,86,71.87,40,9.22,JP,1681846963
213,Egilsstadir,65.2653,-14.3948,71,51.71,75,19.57,IS,1681846863
214,Laayoune,27.1622,-13.2032,78,70.14,40,12.66,EH,1681846963
215,Buzias,45.6492,21.6036,84,51.64,100,3.29,RO,1681846964
216,General Salgado,-20.6483,-50.3606,84,76.75,85,9.82,BR,1681846964
217,Petropavlovsk-Kamchatsky,53.0452,158.6483,93,32.59,75,4.47,RU,1681846964
218,Uturoa,-16.7333,-151.4333,75,83.26,96,16.71,PF,1681846870
219,Tahta,26.7693,31.5021,14,85.3,9,3.51,EG,1681846964
220,Douglas,41.3,-96.167,40,68.79,0,14.97,US,1681846964
221,Laojunmiao,39.8333,97.7333,47,39.94,100,3.2,CN,1681846964
222,Kopargaon,19.8833,74.4833,30,84.11,27,3.02,IN,1681846965
223,Iwanai,42.9744,140.5089,94,40.41,100,4.25,JP,1681846965
224,Madang,-5.2246,145.7966,93,75.22,100,2.82,PG,1681846852
225,Aripuana,-9.1667,-60.6333,91,80.26,100,3.24,BR,1681846865
226,Ruelle-Sur-Touvre,45.6833,0.2333,57,53.82,0,6.91,FR,1681846965
227,Naze,28.3667,129.4833,87,68.92,92,9.51,JP,1681846965
228,Vilyuchinsk,52.9306,158.4028,94,37.26,100,8.77,RU,1681846965
229,Dudinka,69.4058,86.1778,94,-2.38,5,5.53,RU,1681846856
230,Kone,-21.0595,164.8658,89,74.26,68,3.44,NC,1681846966
231,Crane,31.3974,-102.3501,7,88.77,31,20.09,US,1681846836
232,Preobrazheniye,42.9019,133.9064,88,38.34,0,7.45,RU,1681846966
233,Callao,-12.0667,-77.15,65,80.89,0,10.36,PE,1681846868
234,San Luis De La Loma,17.2706,-100.8939,55,87.26,5,9.78,MX,1681846966
235,Uyuni,-20.4597,-66.825,9,57.61,72,25.12,BO,1681846967
236,Northam,51.0333,-4.2167,63,52.18,54,13.76,GB,1681846967
237,Mogadishu,2.0371,45.3438,68,84.02,45,10.47,SO,1681846888
238,Opuwo,-18.0607,13.84,50,70.74,39,5.79,NA,1681846891
239,Nagqu,31.5,92.0,54,36.36,100,5.32,CN,1681846967
240,Minot,48.2325,-101.2963,43,48.42,0,21.85,US,1681846805
241,Sao Vicente,-23.9631,-46.3919,56,76.98,75,6.91,BR,1681846711
242,Biguglia,42.6259,9.4332,65,57.0,40,3.44,FR,1681846968
243,Quellon,-43.1167,-73.6167,88,57.45,100,6.91,CL,1681846863
244,Rongelap,11.1635,166.8941,80,79.88,99,18.66,MH,1681846968
245,Stalowa Wola,50.5829,22.0533,71,53.87,100,3.0,PL,1681846968
246,Spring Creek,40.7266,-115.5859,47,32.85,97,22.7,US,1681846968
247,Kuta,-8.7233,115.1723,88,80.01,20,5.99,ID,1681846889
248,Lakatoro,-16.0999,167.4164,78,79.09,95,6.02,VU,1681846968
249,Yemetsk,63.4721,41.7941,81,33.4,100,4.25,RU,1681846969
250,Wad Rawah,15.1603,33.1397,10,90.72,97,9.66,SD,1681846969
251,Ar Rutbah,33.0381,40.2848,17,73.35,2,10.11,IQ,1681846969
252,Kambia,9.1167,-12.9167,73,82.81,75,6.71,SL,1681846969
253,Inhambane,-23.865,35.3833,81,71.76,59,7.02,MZ,1681846875
254,Nova Olimpia,-14.7972,-57.2881,78,83.8,100,4.38,BR,1681846902
255,Masterton,-40.9597,175.6575,95,60.89,100,3.69,NZ,1681846970
256,Port-Cartier,50.0334,-66.8654,98,33.84,100,16.82,CA,1681846970
257,Hasaki,35.7333,140.8333,84,48.6,13,10.45,JP,1681846763
258,Ebaye,8.7748,167.7392,78,80.62,0,12.66,MH,1681846970
259,Puerto Baquerizo Moreno,-0.9,-89.6,89,81.59,75,4.61,EC,1681846832
260,Santiago Del Torno,-17.9833,-63.3833,97,64.45,100,3.6,BO,1681846971
261,Igarka,67.4667,86.5833,99,-3.05,29,7.07,RU,1681846971
262,Happy Valley-Goose Bay,53.3168,-60.3315,60,41.31,75,12.66,CA,1681846895
263,Muhos,64.808,25.9931,92,34.21,100,2.59,FI,1681846971
264,Nieuw Amsterdam,5.8833,-55.0833,73,84.6,40,11.5,SR,1681846971
265,Sao Joaquim,-28.2939,-49.9317,65,58.41,0,5.68,BR,1681846971
266,Pedro Juan Caballero,-22.5472,-55.7333,83,69.76,75,11.5,PY,1681846971
267,Bani Walid,31.7566,13.9942,46,61.25,0,12.33,LY,1681846971
268,Puerto Wilches,7.3483,-73.896,57,90.16,75,1.39,CO,1681846972
269,Kirakira,-10.4544,161.9205,85,77.68,95,5.75,SB,1681846972
270,Nar'Yan-Mar,67.6713,53.087,88,26.76,95,7.23,RU,1681846820
271,Hamilton,39.1834,-84.5333,35,61.9,0,12.66,US,1681846638
272,Malvan,16.0667,73.4667,84,80.74,0,3.8,IN,1681846945
273,Baoqing,46.3317,132.2111,83,42.28,100,5.64,CN,1681846972
274,Sagua La Grande,22.8067,-80.0756,51,88.79,0,12.97,CU,1681846893
275,Lebu,-37.6167,-73.65,82,56.44,100,5.14,CL,1681846825
276,Le Port,-20.9373,55.2919,95,75.54,7,8.52,RE,1681846973
277,Papatowai,-46.5619,169.4708,90,53.56,95,9.93,NZ,1681846830
278,Okhotsk,59.3833,143.3,78,17.89,3,13.53,RU,1681846850
279,Belyy Yar,53.6039,91.3903,86,22.89,75,8.95,RU,1681846973
280,Papao,-17.75,-149.55,75,83.88,41,19.91,PF,1681846973
281,Belle Fourche,44.6714,-103.8522,40,53.11,100,7.47,US,1681846973
282,Puerto Armuelles,8.2833,-82.8667,66,91.38,67,9.24,PA,1681846884
283,Falenki,58.3613,51.5946,66,41.07,38,9.19,RU,1681846974
284,Seydi,39.4816,62.9137,21,51.69,23,12.66,TM,1681846974
285,Portland,45.5234,-122.6762,68,47.98,75,14.97,US,1681846604
286,South Sioux City,42.4739,-96.4136,28,65.62,0,18.01,US,1681846974
287,Ikeja,6.5942,3.3375,79,84.09,20,9.22,NG,1681846974
288,Geraldton,-28.7667,114.6,48,66.61,0,19.57,AU,1681846878
289,Serres,41.0856,23.5497,88,54.66,81,1.59,GR,1681846975
290,Mariental,-24.6333,17.9667,29,77.9,92,7.7,NA,1681846975
291,San Patricio,28.017,-97.5169,76,79.72,53,20.78,US,1681846845
292,Lazaro Cardenas,17.9583,-102.2,56,85.71,9,12.26,MX,1681846857
293,Georgetown,5.4112,100.3354,94,77.16,20,2.3,MY,1681846528
294,Macon,39.8667,-88.9668,39,60.33,0,6.91,US,1681846975
295,Gunnedah,-30.9833,150.25,79,53.73,52,2.93,AU,1681846975
296,Adrar,20.5022,-10.0711,21,87.21,30,9.19,MR,1681846976
297,Suwayr,30.1171,40.3893,26,79.74,36,10.45,SA,1681846976
298,La Passe,45.5549,-0.8967,85,59.23,6,9.53,FR,1681846859
299,Palikir - National Government Center,6.9248,158.1611,89,77.74,100,5.75,FM,1681846903
300,Zanjan,36.6736,48.4787,51,55.42,24,8.01,IR,1681846977
301,Camoapa,12.3839,-85.5116,27,88.02,100,14.74,NI,1681846977
302,Chanthaburi,12.8333,102.1667,90,71.53,59,2.84,TH,1681846977
303,Hadibu,12.65,54.0333,71,82.56,0,10.47,YE,1681846853
304,Bel Ombre,-4.6167,55.4167,78,82.24,20,3.44,SC,1681846977
305,Bouarfa,32.53,-1.95,13,74.3,41,9.22,MA,1681846977
306,Dzilam Gonzalez,21.2833,-88.9333,44,85.19,0,10.76,MX,1681846858
307,Puttur,12.7667,75.2167,93,82.51,4,1.48,IN,1681846979
308,Haflong,25.1833,93.0333,51,75.83,33,2.71,IN,1681846979
309,Al Jawf,29.5,38.75,45,72.45,100,13.18,SA,1681846979
310,Apace,46.6972,15.9106,88,51.12,100,4.94,SI,1681846979
311,Rosarito,32.3333,-117.0333,65,62.15,19,10.8,MX,1681846979
312,Hiratacho,35.4333,132.8167,99,62.62,100,3.15,JP,1681846979
313,Fortuna,40.5982,-124.1573,60,54.25,100,8.01,US,1681846731
314,Cowes,50.7631,-1.2977,79,48.31,96,5.99,GB,1681846980
315,Kargat,55.1956,80.2811,77,14.05,15,6.29,RU,1681846818
316,Dongola,19.1667,30.4833,6,84.2,0,10.96,SD,1681846980
317,Utrik,11.2278,169.8474,79,79.75,100,16.44,MH,1681846823
318,Bataipora,-22.2953,-53.2711,93,75.25,66,9.13,BR,1681846980
319,Pangai,-19.8,-174.35,89,78.91,75,11.5,TO,1681846981
320,Buckhannon,38.994,-80.232,28,60.8,0,19.57,US,1681846981
321,Katsuura,35.1333,140.3,87,63.14,85,23.26,JP,1681846981
322,The Bottom,17.6259,-63.2492,70,81.16,7,16.98,BQ,1681846981
323,Whakatane,-37.9585,176.9854,93,68.25,97,5.01,NZ,1681846981
324,Alice Springs,-23.7,133.8833,87,47.75,100,3.44,AU,1681846981
325,Kristiansund,63.1115,7.732,57,47.05,0,4.61,NO,1681846981
326,Kingston,17.997,-76.7936,71,85.21,20,11.5,JM,1681846832
327,Alamosa,37.4695,-105.87,12,64.38,0,26.46,US,1681846982
328,Tieling,42.2931,123.8414,27,50.14,70,7.34,CN,1681846982
329,Samana,19.2056,-69.3369,58,89.82,40,11.5,DO,1681846982
330,Alo,7.4178,6.7371,79,79.74,100,0.76,NG,1681846982
331,Holualoa,19.6228,-155.9522,65,74.82,0,9.22,US,1681846829
332,Arish,31.1316,33.7984,49,74.55,0,6.69,EG,1681846808
333,Rosario Oeste,-14.8361,-56.4275,73,85.46,55,5.53,BR,1681846983
334,Weyburn,49.6668,-103.8511,45,43.02,100,26.46,CA,1681846983
335,Usogorsk,63.4106,48.6872,84,32.65,100,4.05,RU,1681846983
336,Gaiman,-43.2897,-65.4929,37,62.8,100,18.72,AR,1681846983
337,Copiapo,-27.3667,-70.3333,36,64.09,0,7.0,CL,1681846983
338,Keflavik,64.0049,-22.5624,100,48.63,100,16.11,IS,1681846831
339,Novoagansk,61.9449,76.6625,94,11.16,100,8.23,RU,1681846984
340,Greenville,35.6127,-77.3663,24,76.8,0,8.05,US,1681846984
341,Sanshui,23.1549,112.8916,94,77.9,43,5.73,CN,1681846984
342,Whitehorse,60.7161,-135.0538,93,33.94,100,3.44,CA,1681846833
343,Bedi,22.5,70.05,71,80.83,60,12.19,IN,1681846984
344,Khromtau,50.2503,58.4347,70,37.29,45,3.98,KZ,1681846984
345,Monrovia,6.3005,-10.7969,82,82.17,99,7.31,LR,1681846845
346,Zakynthos,37.7914,20.8953,77,53.02,38,6.73,GR,1681846985
347,Carnaiba,-8.7,-37.6667,51,86.07,100,5.1,BR,1681846985
348,Maloye Ganyushkino,46.6,49.2667,53,51.91,96,14.05,KZ,1681846985
349,Oranjemund,-28.55,16.4333,42,68.59,1,2.91,NA,1681846985
350,Port Macquarie,-31.4333,152.9167,68,64.44,98,0.18,AU,1681846986
351,Camiri,-20.05,-63.5167,90,64.94,100,1.68,BO,1681846986
352,Kuanda,56.3161,116.0806,86,13.91,56,2.46,RU,1681846986
353,Ulsteinvik,62.3432,5.8487,69,47.77,99,1.99,NO,1681846986
354,Labuan,5.2767,115.2417,94,79.16,20,0.0,MY,1681846832
355,Porbandar,21.6422,69.6093,68,80.96,71,10.69,IN,1681846986
356,Thunder Bay,48.4001,-89.3168,56,39.11,75,17.27,CA,1681846987
357,Laguna,38.421,-121.4238,43,58.8,0,9.22,US,1681846827
358,Son La,21.3167,103.9,32,73.33,0,1.88,VN,1681846987
359,Big Bend,-26.8167,31.9333,83,68.09,0,2.3,SZ,1681846987
360,Emerald,-23.5333,148.1667,93,63.34,0,7.18,AU,1681846938
361,Talakan,50.3167,130.3667,83,33.87,84,8.28,RU,1681846988
362,Morococha,-11.5997,-76.1411,63,46.45,100,1.61,PE,1681846988
363,Oak Island,33.9166,-78.1611,44,72.05,0,9.22,US,1681846988
364,Praia Da Vitoria,38.7333,-27.0667,72,59.25,40,4.5,PT,1681846822
365,Baruun-Urt,46.6806,113.2792,23,53.11,100,6.33,MN,1681846989
366,Baise City,23.8997,106.6133,81,78.93,5,0.58,CN,1681846989
367,Evanston,42.0411,-87.6901,40,55.0,0,9.22,US,1681846989
368,Novoanninskiy,50.5287,42.6747,54,47.55,100,8.59,RU,1681846989
369,Chagoda,59.164,35.3285,83,40.33,100,7.56,RU,1681846990
370,Saint-Joseph,-21.3667,55.6167,81,75.18,21,10.31,RE,1681846990
371,Port Douglas,-16.4833,145.4667,83,75.76,91,8.28,AU,1681846991
372,Marshalltown,42.0494,-92.908,33,58.55,0,10.36,US,1681846991
373,Newman,37.3138,-121.0208,31,59.7,100,5.01,US,1681846862
374,Sabang,5.8933,95.3214,77,82.6,97,4.07,ID,1681846991
375,Kulhudhuffushi,6.6221,73.07,72,83.21,10,1.57,MV,1681846991
376,Manokwari,-0.8667,134.0833,83,77.52,100,4.61,ID,1681846864
377,Beloyarskiy,63.7119,66.6722,96,8.4,96,3.47,RU,1681846992
378,New Norfolk,-42.7826,147.0587,76,50.0,71,3.44,AU,1681846814
379,Lycksele,64.5954,18.6735,75,37.27,100,0.0,SE,1681846992
380,Paphos,34.7667,32.4167,45,67.78,20,6.91,CY,1681846858
381,Moyale,3.5167,39.0584,89,68.04,98,5.41,KE,1681846866
382,Victoria Point,-27.5833,153.3,91,63.52,100,1.99,AU,1681846993
383,Tralee,52.2704,-9.7026,86,48.29,0,8.25,IE,1681846889
384,Daru,-9.0763,143.2092,92,75.4,100,8.08,PG,1681846880
385,Sur,22.5667,59.5289,62,79.66,100,11.54,OM,1681846993
386,Kish,26.5578,54.0194,88,70.07,0,4.61,IR,1681846993
387,Fort Bragg,35.139,-79.006,23,77.7,0,13.8,US,1681846838
388,Ust'-Kulom,61.6864,53.6902,98,25.29,30,4.07,RU,1681846994
389,Bikenibeu Village,1.3673,173.1241,78,82.36,20,4.61,KI,1681846898
390,Sao Jose Da Coroa Grande,-8.8978,-35.1478,78,80.94,97,8.12,BR,1681846867
391,Lagoa,39.05,-27.9833,66,57.61,94,14.25,PT,1681846994
392,Khandyga,62.6667,135.6,97,19.99,100,1.48,RU,1681846877
393,Manismata,-2.4667,111.0333,97,73.99,95,0.87,ID,1681846995
394,Harper,4.375,-7.7169,82,81.52,52,7.67,LR,1681846995
395,Tofol,5.3248,163.0078,77,81.73,100,16.15,FM,1681846874
396,Hilo,19.7297,-155.09,71,78.48,20,13.0,US,1681846757
397,Kindu,-2.95,25.95,98,70.63,100,2.28,CD,1681846996
398,Qulsary,46.9531,54.0198,28,53.13,100,9.1,KZ,1681846996
399,Bardai,11.65,7.2333,28,89.2,75,6.49,NG,1681846996
400,Nova Vicosa,-17.8919,-39.3719,76,80.89,30,7.56,BR,1681846828
401,Xai-Xai,-25.0519,33.6442,83,68.29,0,7.4,MZ,1681846997
402,Douz,33.4663,9.0203,23,71.67,4,6.46,TN,1681846997
403,Chilaw,7.5758,79.7953,78,82.42,17,6.38,LK,1681846997
404,Juan De Ayolas,-27.4,-56.9,34,76.8,0,8.39,PY,1681846998
405,Charters Towers,-20.1,146.2667,87,67.8,18,6.02,AU,1681846998
406,Ancud,-41.8697,-73.8203,91,55.08,100,10.13,CL,1681846853
407,Sechura,-5.5569,-80.8222,56,86.52,100,9.13,PE,1681846998
408,Labytnangi,66.6572,66.4183,79,3.54,60,5.32,RU,1681846950
409,Kovdor,67.5662,30.4758,94,32.79,100,3.22,RU,1681846998
410,Goure,13.9835,10.2704,16,91.13,7,7.4,NE,1681846999
411,Mil'Kovo,55.6078,37.7956,71,51.75,96,7.27,RU,1681846999
412,Tazacorte,28.629,-17.9293,82,68.14,20,16.11,ES,1681846999
413,Binzhou,37.3667,118.0167,70,55.18,0,6.46,CN,1681846999
414,Clewiston,26.7542,-80.9337,39,79.09,0,10.83,US,1681847000
415,San Clemente Del Tuyu,-36.3569,-56.7235,45,62.92,100,16.69,AR,1681847000
416,Tikapur,28.5,81.1333,23,80.73,6,4.76,NP,1681847000
417,Bela,25.9333,81.9833,19,87.6,5,8.03,IN,1681847000
418,Ak'Ordat,15.5486,37.8867,39,86.88,68,5.86,ER,1681847001
419,Krugersdorp,-26.0858,27.7752,29,58.03,0,3.22,ZA,1681847001
420,La'Ie,21.6477,-157.9253,77,77.25,100,13.56,US,1681846864
421,Pingzhuang,42.0372,119.2889,44,52.36,49,10.56,CN,1681847001
422,Juliaca,-15.5,-70.1333,21,63.36,12,5.73,PE,1681847002
423,Ibeto,10.4854,5.145,41,88.36,100,4.18,NG,1681847002
424,Calingasta,-31.3308,-69.4078,6,73.04,0,1.41,AR,1681847002
425,Belmonte,-15.8631,-38.8828,79,81.07,19,11.01,BR,1681847002
426,Chinde,26.8418,88.0763,24,69.12,31,5.68,NP,1681846911
427,Kaihua,23.3687,104.28,55,65.95,0,2.55,CN,1681847002
428,Tianpeng,30.9866,103.9393,65,75.63,100,2.66,CN,1681847003
429,Kavaratti,10.5669,72.642,75,83.07,0,12.12,IN,1681846880
430,Jawf Al Maqbabah,13.8378,45.8349,62,74.52,0,4.36,YE,1681847003
431,Mazidagi,37.4775,40.4881,53,61.7,68,5.7,TR,1681847003
432,Saldanha,-33.0117,17.9442,85,60.85,10,12.12,ZA,1681847003
433,Brokopondo,4.75,-55.1667,89,76.01,100,7.07,SR,1681847004
434,Lorengau,-2.0226,147.2712,80,80.76,99,7.34,PG,1681847004
435,Kapuskasing,49.4169,-82.4331,80,23.0,100,34.52,CA,1681846850
436,I-N-Salah,27.1935,2.4607,8,86.67,0,8.52,DZ,1681847004
437,Harare,-17.8294,31.0539,79,60.82,91,9.51,ZW,1681847004
438,Luderitz,-26.6481,15.1594,69,61.72,0,5.57,NA,1681846844
439,Harsud,22.1,76.7333,18,89.22,4,6.87,IN,1681847005
440,Atamyrat,37.8357,65.2106,39,54.68,67,10.4,TM,1681847005
441,Omaruru,-21.4333,15.9333,48,72.12,100,5.01,NA,1681847005
442,Toliara,-23.35,43.6667,77,75.83,55,5.73,MG,1681847005
443,Bedford,52.1346,-0.4663,69,49.12,37,11.3,GB,1681846718
444,Rumbek,6.802,29.6912,57,84.24,100,5.73,SS,1681846884
445,Esteio,-29.8614,-51.1792,54,73.78,40,13.8,BR,1681847006
446,Pisco,-13.7,-76.2167,61,80.65,86,25.32,PE,1681846853
447,Warrnambool,-38.3833,142.4833,75,51.33,100,15.08,AU,1681847006
448,Carutapera,-1.195,-46.02,83,79.77,72,4.07,BR,1681847006
449,Vega De Alatorre,20.0333,-96.6333,71,82.67,6,15.9,MX,1681847007
450,Usol'Ye,59.4268,56.6808,62,31.71,0,8.12,RU,1681847007
451,Suva,-18.1416,178.4415,94,72.88,40,4.61,FJ,1681847007
452,Sinhyeon,34.8825,128.6267,99,64.29,100,4.47,KR,1681847007
453,Gourcy,13.2167,-2.35,6,91.47,85,7.58,BF,1681847007
454,Fredericksburg,38.3032,-77.4605,15,75.7,0,19.57,US,1681846931
455,Hotan,37.0997,79.9269,30,62.87,100,7.09,CN,1681847008
456,Asbach,50.6667,7.4167,73,50.74,49,8.75,DE,1681847008
457,Twin Falls,42.3505,-114.6445,75,33.62,100,18.41,US,1681847008
458,La Ronge,55.1001,-105.2842,38,37.65,75,18.41,CA,1681847008
459,Jianshui,23.6363,102.8264,33,68.74,0,2.84,CN,1681847009
460,Meizhou,24.2977,116.1072,93,75.22,100,3.22,CN,1681847009
461,Obala,4.1667,11.5333,85,72.59,26,2.89,CM,1681847009
462,Tyukhtet,56.5389,89.3011,89,11.14,100,8.81,RU,1681847009
463,Praia,14.9215,-23.5087,65,77.54,75,20.71,CV,1681847010
464,Progreso,21.2833,-89.6667,54,94.1,0,16.87,MX,1681847010
465,Minzhu,43.7286,127.3447,29,39.69,95,2.62,CN,1681847010
466,Abalak,58.1286,68.5944,65,22.59,6,4.38,RU,1681847011
467,Nemuro,43.3236,145.575,85,37.76,97,3.44,JP,1681846886
468,Siwa Oasis,29.2041,25.5195,25,82.29,100,6.02,EG,1681846863
469,Turkmenbasy,40.0222,52.9552,18,56.17,0,11.5,TM,1681847011
470,El Calafate,-50.3408,-72.2768,71,49.77,98,11.56,AR,1681847011
471,Coyhaique,-45.5752,-72.0662,62,57.15,100,11.5,CL,1681847012
472,Palopo,-2.9996,120.1921,90,77.18,100,2.95,ID,1681847012
473,Meadow Lake,34.8014,-106.5436,8,71.96,53,21.5,US,1681847012
474,Macapa,0.0389,-51.0664,89,84.18,75,4.61,BR,1681847012
475,Salalah,17.0151,54.0924,69,82.49,0,4.61,OM,1681847013
476,Nadi,-17.8,177.4167,94,75.2,40,0.0,FJ,1681846687
477,Santo Antonio,-6.3106,-35.4789,77,80.26,65,9.62,BR,1681847013
478,Murudeshwara,14.0943,74.4845,82,80.69,63,2.19,IN,1681847001
479,Rabaul,-4.1967,152.1721,79,78.4,39,3.67,PG,1681847013
480,Arris,35.2588,6.3471,53,50.94,28,2.91,DZ,1681847014
481,Itoman,26.1247,127.6694,90,73.24,75,16.11,JP,1681847014
482,Rexburg,43.826,-111.7897,62,40.91,0,9.22,US,1681847014
483,Sovetsk,55.0839,21.8785,66,44.85,100,10.94,RU,1681847014
484,Vernon,50.2581,-119.2691,66,45.39,100,2.3,CA,1681846850
485,Waddan,29.1614,16.139,32,67.24,1,14.81,LY,1681846854
486,Cruzeiro Do Sul,-29.5128,-51.9853,51,76.1,0,7.74,BR,1681847015
487,Gonaives,19.45,-72.6833,65,83.26,54,6.64,HT,1681847015
488,Takikawa,43.5528,141.9064,80,42.49,100,1.79,JP,1681847015
489,Puquio,-14.7,-74.1333,45,62.47,63,11.79,PE,1681847015
490,Sao Felix Do Xingu,-6.6447,-51.995,89,81.55,100,1.41,BR,1681847015
491,Muroto-Misakicho,33.2833,134.15,92,63.79,96,7.23,JP,1681847016
492,Ohara,35.25,140.3833,87,62.49,64,19.69,JP,1681847016
493,Villa Ojo De Agua,-29.5,-63.6938,32,75.72,13,9.26,AR,1681847016
494,Ambodifotatra,-16.9833,49.85,81,80.1,13,14.14,MG,1681847016
495,Mili,6.0815,171.735,77,81.75,100,13.69,MH,1681846880
496,Gunjur,13.2019,-16.7339,61,80.67,0,6.91,GM,1681847017
497,Revda,56.801,59.9303,76,31.68,14,4.94,RU,1681846903
498,Borogontsy,62.6683,131.1683,97,18.63,100,3.74,RU,1681847017
499,Nikolayevsk-On-Amure,53.1406,140.73,92,30.54,87,2.21,RU,1681846852
500,Taltal,-25.4,-70.4833,68,68.02,11,7.81,CL,1681847017
501,Barabai,-2.5833,115.3833,97,74.28,100,1.34,ID,1681847018
502,Island Harbour,50.724,-1.2758,79,48.22,92,5.99,GB,1681846845
503,Pangody,65.85,74.4859,92,14.29,100,11.03,RU,1681847018
504,Wanganui,-39.9333,175.05,73,67.59,99,5.01,NZ,1681847018
505,Murzuq,25.9155,13.9184,26,76.06,0,15.12,LY,1681846957
506,Savelugu,9.6244,-0.8253,57,85.23,86,15.9,GH,1681847018
507,Joshimath,30.5667,79.5667,67,57.2,92,4.99,IN,1681847019
508,Bandar-E Lengeh,26.5579,54.8807,63,75.22,78,4.63,IR,1681847019
509,Bloemfontein,-29.1211,26.214,62,54.88,0,3.44,ZA,1681846903
510,Al Mawsil Al Jadidah,36.3346,43.0978,53,68.47,68,2.44,IQ,1681847019
511,Nishinoomote,30.7333,131.0,85,68.5,100,6.49,JP,1681846836
512,Walvis Bay,-22.9575,14.5053,56,72.36,73,4.05,NA,1681847019
513,Mamuju,-2.6748,118.8885,84,78.98,46,3.2,ID,1681847019
514,Taro,-8.3862,115.28,92,72.86,50,1.05,ID,1681847020
515,Bodo,67.28,14.405,64,48.4,75,3.44,NO,1681846799
516,Castillos,-34.1667,-53.8333,49,60.26,22,11.45,UY,1681847020
517,Poronaysk,49.2167,143.1167,72,32.7,1,2.1,RU,1681847020
518,Codrington,-38.2667,141.9667,75,54.46,98,12.8,AU,1681847020
519,Alesund,62.4723,6.1549,73,46.72,0,3.44,NO,1681846900
520,Concepcion,-36.827,-73.0498,59,60.6,0,12.66,CL,1681846855
521,Grand Baie,-20.0182,57.5802,77,79.45,8,7.0,MU,1681847021
522,Dalai,45.5,124.3,16,46.24,99,9.26,CN,1681847021
523,Edson,53.5835,-116.4356,29,46.51,0,6.91,CA,1681847021
524,Sisimiut,66.9395,-53.6735,81,22.41,100,12.01,GL,1681847022
525,Paghman,34.5875,68.9533,80,45.99,100,2.37,AF,1681847022
526,Cidreira,-30.1811,-50.2056,53,72.57,31,1.3,BR,1681846848
527,Omis,43.4447,16.6886,81,59.18,70,4.83,HR,1681847022
528,Pierre,44.3683,-100.351,34,61.84,0,30.0,US,1681846942
529,Queenstown,-31.8976,26.8753,39,60.53,1,3.31,ZA,1681847022
530,San Antonio De Pale,-1.4014,5.6325,79,83.03,68,10.63,GQ,1681846847
531,Al Kawa,13.7463,32.4996,9,90.73,3,10.45,SD,1681847023
532,Ma'Rib,15.4591,45.3253,34,82.18,10,7.83,YE,1681847023
533,Qashyr,53.0675,76.1036,79,21.09,82,6.78,KZ,1681847023
534,Vazante,-17.9869,-46.9078,52,83.21,100,6.89,BR,1681847024
535,Souillac,-20.5167,57.5167,89,79.18,40,12.66,MU,1681847024
536,Tubarjal,30.4999,38.216,45,73.4,7,2.82,SA,1681847024
537,Picota,-6.9197,-76.3304,45,95.49,83,5.61,PE,1681847024
538,Ar Ruways,24.1103,52.7306,60,76.21,71,7.23,AE,1681847025
539,Bontang,0.1333,117.5,80,80.2,95,0.94,ID,1681846833
540,Pampierstad,-27.7832,24.6877,27,65.32,0,8.77,ZA,1681847025
541,Padang,-0.9492,100.3543,89,77.05,100,3.51,ID,1681847025
542,Vila Franca Do Campo,37.7167,-25.4333,67,59.41,100,4.41,PT,1681846875
543,Balykshi,47.0667,51.8667,49,46.4,0,11.18,KZ,1681847026
544,Yaren,-0.5472,166.916,75,82.44,20,8.59,NR,1681846822
545,Porto Novo,6.4965,2.6036,77,85.82,83,9.37,BJ,1681846854
546,Rushville,39.6092,-85.4464,38,57.63,0,5.01,US,1681846813
547,San Jose De Feliciano,-30.3845,-58.7517,37,67.44,5,13.04,AR,1681847026
548,Irymple,-34.25,142.1667,89,55.09,1,1.99,AU,1681846825
549,Kuching,1.55,110.3333,89,79.02,20,3.44,MY,1681846951
550,Urengoy,65.9667,78.3667,91,8.64,97,10.36,RU,1681847027
551,Kiunga,-6.1219,141.2906,99,72.27,100,1.57,PG,1681846860
552,Xihe,31.6864,113.4659,94,67.84,98,5.35,CN,1681847027
553,Plastun,44.7561,136.2939,98,39.76,100,3.49,RU,1681847027
554,Fray Luis Beltran,-39.3167,-65.7667,43,63.01,100,15.32,AR,1681847027
555,Verkhovyna,48.1557,24.7911,99,39.96,100,2.01,UA,1681847027
556,Miracema Do Tocantins,-9.5618,-48.3967,78,82.87,96,4.18,BR,1681847027
557,Griffith,41.5284,-87.4237,42,54.88,0,10.36,US,1681847028
558,Cannonvale,-20.2833,148.7,81,78.19,30,13.4,AU,1681846838
559,La Gi,10.6667,107.7833,77,78.26,67,2.1,VN,1681846922
560,Mangai,-4.05,19.5333,89,73.49,92,3.56,CD,1681847028
561,Flin Flon,54.7682,-101.865,40,31.84,100,6.91,CA,1681846894
562,Peniche,39.3558,-9.3811,76,63.16,90,9.93,PT,1681846899
563,Westport,41.1415,-73.3579,44,55.27,100,19.57,US,1681846871
564,Gilgit,35.9221,74.3087,80,55.04,100,2.24,PK,1681847028
565,Zavety Il'Icha,49.0294,140.2494,65,33.48,9,1.86,RU,1681847029
566,Galliano,29.4422,-90.2992,53,71.6,0,5.75,US,1681846826
567,Dompu,-8.5356,118.4622,97,74.68,46,1.01,ID,1681847029
568,Colonia,50.9333,6.95,60,54.45,75,9.22,DE,1681846811
569,Tual,-5.6667,132.75,72,82.35,84,4.54,ID,1681846892
570,Little Falls,40.869,-74.2082,44,53.65,75,24.16,US,1681847029
571,Sinabang,2.4803,96.3801,82,80.65,81,4.21,ID,1681846918
572,Newquay,50.4132,-5.0819,81,47.16,20,4.61,GB,1681847030
