City_ID,City,Lat,Lng,Humidity,Temp,Clouds,Wind,Country,Date
0,Haiku-Pauwela,20.9219,-156.3051,83,71.15,0,28.77,US,1681914147
1,Kapuskasing,49.4169,-82.4331,79,21.2,100,11.5,CA,1681914121
2,Stornoway,58.2093,-6.3865,53,59.04,0,16.11,GB,1681914147
3,Petropavlovsk-Kamchatsky,53.0452,158.6483,70,36.19,75,11.18,RU,1681914148
4,Coquimbo,-29.9533,-71.3436,55,64.13,0,4.61,CL,1681914148
5,Shatrovo,56.5167,64.6333,36,42.03,0,4.43,RU,1681914082
6,Domna,51.8971,113.1573,30,26.04,20,22.37,RU,1681914148
7,Oodweyne,9.4092,45.064,27,85.78,7,3.22,SO,1681914148
8,Saint-Francois,46.4154,3.9054,47,67.51,0,6.91,FR,1681914148
9,Adamstown,-25.066,-130.1015,78,75.92,20,13.38,PN,1681914149
10,Panama City Beach,30.1766,-85.8055,52,70.36,0,5.99,US,1681914149
11,Nova Sintra,14.8667,-24.7167,77,68.59,100,17.47,CV,1681914149
12,Port Alfred,-33.5906,26.891,43,87.6,14,7.65,ZA,1681914149
13,Ushuaia,-54.8,-68.3,62,49.66,20,17.27,AR,1681914087
14,Talnakh,69.4865,88.3972,94,4.21,99,3.33,RU,1681914150
15,Utrik,11.2278,169.8474,79,79.9,100,20.96,MH,1681914150
16,Edinburgh Of The Seven Seas,-37.0676,-12.3116,67,62.56,100,26.02,SH,1681914151
17,Albany,42.6001,-73.9662,66,39.97,53,4.0,US,1681913648
18,Alofi,-19.0595,-169.9187,94,78.69,100,9.22,NU,1681914151
19,Santyoku,37.4406,129.1708,69,59.23,0,7.29,KR,1681914151
20,Warka,51.7843,21.1909,65,54.66,100,10.83,PL,1681914151
21,Bela,25.9333,81.9833,11,96.17,3,9.1,IN,1681914152
22,Yigo Village,13.5361,144.8886,75,78.31,75,11.5,GU,1681914152
23,Port Mathurin,-19.6833,63.4167,77,78.76,66,16.37,MU,1681914152
24,Ingeniero Guillermo N. Juarez,-23.9,-61.85,59,75.51,0,5.21,AR,1681914153
25,Kill Devil Hills,36.0307,-75.676,78,59.38,0,8.05,US,1681914153
26,Noosa Heads,-26.3833,153.15,63,65.57,20,15.35,AU,1681914153
27,Port Elizabeth,-33.918,25.5701,71,78.31,0,10.36,ZA,1681914153
28,Fortuna,40.5982,-124.1573,93,40.84,31,7.0,US,1681914153
29,Yellowknife,62.456,-114.3525,68,25.32,20,9.22,CA,1681914120
30,Port Saint John'S,-31.6229,29.5448,43,85.84,0,14.41,ZA,1681914154
31,Puerto Natales,-51.7236,-72.4875,82,52.25,75,28.77,CL,1681914075
32,Grytviken,-54.2811,-36.5092,81,37.8,69,4.54,GS,1681914154
33,Namibe,-15.1961,12.1522,63,83.7,98,10.98,AO,1681914154
34,Olonkinbyen,70.9221,-8.7187,88,34.68,56,12.37,SJ,1681914154
35,Charters Towers,-20.1,146.2667,79,70.79,0,7.09,AU,1681914083
36,Miles City,46.4083,-105.8406,86,34.77,100,24.16,US,1681914155
37,Bethel,41.3712,-73.414,58,45.36,100,10.36,US,1681913919
38,Chonchi,-42.6128,-73.8092,97,58.12,100,0.16,CL,1681914155
39,Hawaiian Paradise Park,19.5933,-154.9731,96,69.67,40,9.22,US,1681914155
40,Queenstown,-31.8976,26.8753,13,82.85,0,13.0,ZA,1681914155
41,Sitka,57.0531,-135.33,65,42.69,100,4.61,US,1681913956
42,Mount Isa,-20.7333,139.5,38,73.17,100,16.11,AU,1681914156
43,Ilulissat,69.2167,-51.1,80,24.82,75,5.75,GL,1681914159
44,Kajiado,-1.8524,36.7768,54,72.7,71,9.55,KE,1681914159
45,Lagos,6.5833,3.75,55,91.85,73,7.78,NG,1681914000
46,Udachny,66.4167,112.4,99,5.2,57,6.13,RU,1681914159
47,Murudeshwara,14.0943,74.4845,74,83.77,97,4.47,IN,1681914160
48,Anadyr,64.75,177.4833,93,25.3,100,17.9,RU,1681914160
49,Ribeira Grande,38.5167,-28.7,94,59.4,75,23.02,PT,1681914160
50,Lima,-12.0432,-77.0282,75,77.9,100,6.91,PE,1681913884
51,Chibougamau,49.9168,-74.3659,74,26.22,100,10.36,CA,1681914160
52,North Battleford,52.7834,-108.2847,80,28.49,100,17.27,CA,1681914161
53,Waitangi,-43.9535,-176.5597,94,60.82,100,10.0,NZ,1681914161
54,Igarka,67.4667,86.5833,96,10.63,91,3.49,RU,1681914161
55,Ryotsu-Minato,38.0833,138.4333,89,51.84,4,3.33,JP,1681914161
56,Cova Figueira,14.8905,-24.2934,75,70.05,100,17.6,CV,1681914161
57,Hafar Al-Batin,28.4328,45.9708,27,90.18,0,0.0,SA,1681914162
58,Gondar,12.6,37.4667,18,80.74,84,16.33,ET,1681914162
59,La Passe,45.5549,-0.8967,51,70.02,86,4.63,FR,1681914162
60,Happy Valley-Goose Bay,53.3168,-60.3315,81,39.51,100,5.75,CA,1681914162
61,Sinabang,2.4803,96.3801,77,81.43,99,4.05,ID,1681914162
62,Nemuro,43.3236,145.575,82,38.48,7,7.67,JP,1681914162
63,West Island,-12.1568,96.8225,89,80.58,40,16.11,CC,1681914162
64,Santa Elena De Uairen,4.6167,-61.1333,71,74.53,96,2.73,VE,1681914138
65,Yung Shue Wan,22.2333,114.1167,87,76.28,99,12.57,HK,1681914163
66,Panambi,-28.2925,-53.5017,33,64.24,0,18.88,BR,1681914163
67,Wailua Homesteads,22.0669,-159.378,85,66.74,16,1.99,US,1681914163
68,Milton,34.1322,-84.3007,57,67.62,0,1.92,US,1681914039
69,Doctor Arroyo,23.6667,-100.1833,76,63.36,93,7.11,MX,1681914163
70,Porto Novo,6.4965,2.6036,64,76.82,98,10.18,BJ,1681914163
71,Kokpekty,48.75,82.4,71,28.31,47,7.23,KZ,1681914164
72,Yuzhno-Kurilsk,44.0306,145.8556,78,38.19,15,5.7,RU,1681914164
73,Cabo San Lucas,22.8909,-109.9124,68,70.57,95,9.13,MX,1681913761
74,Santa Cruz,-17.8,-63.1667,94,68.05,75,13.8,BO,1681914164
75,Mitu,1.1983,-70.1733,70,81.97,100,3.62,CO,1681914164
76,Minas De Marcona,-15.2119,-75.1103,65,65.41,4,12.12,PE,1681914164
77,Rongelap,11.1635,166.8941,79,80.06,100,21.5,MH,1681914164
78,Kununurra,-15.7667,128.7333,57,75.18,4,4.61,AU,1681914165
79,Ust-Tsilma,65.441,52.1498,93,33.73,98,6.89,RU,1681913957
80,Petnjica,42.9092,19.9638,82,49.59,100,4.83,ME,1681914165
81,Sumbawa Besar,-8.5,117.4333,95,74.26,69,4.03,ID,1681914165
82,Margaret River,-33.95,115.0667,79,55.6,0,7.76,AU,1681914165
83,Eminabad,32.0422,74.2594,78,68.58,38,6.89,PK,1681914166
84,Northam,51.0333,-4.2167,84,56.01,60,16.6,GB,1681914166
85,Stanley,54.868,-1.6985,60,52.41,20,13.8,GB,1681914166
86,Shindand,33.3029,62.1474,26,63.54,0,23.09,AF,1681914166
87,Kupang,-10.1667,123.5833,75,76.05,83,10.54,ID,1681914166
88,Uturoa,-16.7333,-151.4333,79,81.63,100,14.14,PF,1681914166
89,New Norfolk,-42.7826,147.0587,74,44.91,77,4.0,AU,1681914167
90,Coahuayana De Hidalgo,18.7,-103.6583,45,76.68,94,0.45,MX,1681914167
91,Saldanha,-33.0117,17.9442,63,65.75,100,6.35,ZA,1681914167
92,Papatowai,-46.5619,169.4708,94,49.14,31,4.85,NZ,1681914167
93,Lebu,-37.6167,-73.65,81,57.97,19,11.23,CL,1681914167
94,Mejit,10.2753,170.8646,81,80.15,100,19.6,MH,1681914167
95,Taghazout,30.5426,-9.7112,74,75.97,25,12.46,MA,1681914168
96,Nuuk,64.1835,-51.7216,86,29.01,100,9.22,GL,1681914168
97,College,64.8569,-147.8028,70,9.21,40,11.5,US,1681914168
98,Kavaratti,10.5669,72.642,70,84.27,23,7.27,IN,1681914168
99,Vakarai,55.6035,23.8213,69,61.32,98,15.17,LT,1681914169
100,Luderitz,-26.6481,15.1594,57,70.27,43,5.97,NA,1681914169
101,Newman,37.3138,-121.0208,82,41.04,2,3.0,US,1681914169
102,Tual,-5.6667,132.75,77,82.56,12,9.4,ID,1681914169
103,Port-Aux-Francais,-49.35,70.2167,70,42.21,69,30.27,TF,1681914169
104,Acapulco De Juarez,16.8634,-99.8901,69,80.42,0,4.61,MX,1681914170
105,Kingston,17.997,-76.7936,69,83.01,20,5.75,JM,1681914170
106,Gonen,40.1049,27.654,75,57.16,100,6.17,TR,1681914170
107,Tiksi,71.6872,128.8694,100,-3.59,100,4.09,RU,1681914170
108,Indramayu,-6.3264,108.32,80,82.4,99,8.23,ID,1681914170
109,Aripuana,-9.1667,-60.6333,80,80.37,100,4.27,BR,1681914170
110,Gaiman,-43.2897,-65.4929,47,67.62,32,19.89,AR,1681914170
111,Xankandi,39.8177,46.7528,61,65.1,44,4.21,AZ,1681914171
112,Vernon,50.2581,-119.2691,88,31.55,98,6.91,CA,1681914171
113,Bengkulu,-3.8004,102.2655,86,78.85,100,2.26,ID,1681914171
114,Invercargill,-46.4,168.35,96,46.47,15,3.44,NZ,1681914171
115,Vila Franca Do Campo,37.7167,-25.4333,76,61.21,86,19.86,PT,1681914171
116,Hotan,37.0997,79.9269,37,57.29,100,10.85,CN,1681914172
117,Dolores,-36.3132,-57.6792,78,54.57,85,18.77,AR,1681914172
118,Sao Jose Da Coroa Grande,-8.8978,-35.1478,68,85.19,99,8.39,BR,1681914172
119,Klyuchi,52.2667,79.1667,77,23.65,1,9.04,RU,1681914172
120,Keflavik,64.0049,-22.5624,100,48.63,100,16.11,IS,1681913920
121,Rikaze,29.25,88.8833,14,54.32,85,11.77,CN,1681914172
122,Rockingham,42.9668,-71.0995,51,47.53,11,3.0,US,1681914172
123,Sinan,34.8262,126.1086,100,64.51,84,9.6,KR,1681914173
124,Susuman,62.7833,148.1667,93,15.08,100,6.06,RU,1681914059
125,Mount Gambier,-37.8333,140.7667,80,51.93,56,3.49,AU,1681914173
126,Kudat,6.8837,116.8477,94,78.73,20,0.0,MY,1681914173
127,Vilyuchinsk,52.9306,158.4028,92,37.26,100,4.45,RU,1681914173
128,Bredasdorp,-34.5322,20.0403,38,74.77,100,6.93,ZA,1681914173
129,Mirny,62.5353,113.9611,53,24.24,100,18.01,RU,1681914173
130,Kruisfontein,-34.0033,24.7314,17,92.43,100,8.81,ZA,1681914174
131,Hadibu,12.65,54.0333,69,83.53,34,6.06,YE,1681914174
132,Ketchikan,55.3422,-131.6461,86,34.27,20,0.0,US,1681914174
133,Geraldton,-28.7667,114.6,77,63.01,47,3.44,AU,1681914174
134,Afaahiti,-17.75,-149.2833,83,76.87,84,14.61,PF,1681914174
135,Cloquet,46.7216,-92.4594,73,35.6,40,18.41,US,1681914068
136,Constantia,44.1833,28.65,92,52.48,100,13.29,RO,1681914020
137,Masterton,-40.9597,175.6575,99,60.89,100,0.6,NZ,1681914176
138,Brookhaven,31.5791,-90.4407,74,69.78,7,7.23,US,1681913936
139,Belmonte,-15.8631,-38.8828,67,87.87,74,12.28,BR,1681914176
140,Loa Janan,-0.583,117.095,97,75.33,97,2.3,ID,1681914176
141,Blackmans Bay,-43.0167,147.3167,72,48.33,95,7.45,AU,1681914177
142,Ugoofaaru,5.6667,73.0,71,83.91,11,2.01,MV,1681914177
143,Yanchep,-31.55,115.6833,47,62.44,0,10.27,AU,1681914177
144,Kodiak,57.79,-152.4072,55,33.31,100,16.11,US,1681914177
145,Puerto Ayora,-0.7393,-90.3518,98,79.56,100,1.01,EC,1681914177
146,Mount Vernon,40.9126,-73.8371,53,48.61,100,13.8,US,1681914099
147,Georgetown,5.4112,100.3354,84,85.93,20,0.0,MY,1681914079
148,Saint-Denis,48.9167,2.3333,54,64.98,20,14.97,FR,1681914178
149,Capitao Poco,-1.7464,-47.0594,92,76.57,100,0.07,BR,1681914113
150,Yoloten,37.2989,62.3597,12,65.64,0,10.11,TM,1681914178
151,Pokhara,28.2333,83.9833,24,80.33,97,7.34,NP,1681914178
152,Kargasok,59.0556,80.8572,87,24.17,100,11.72,RU,1681914178
153,Egilsstadir,65.2653,-14.3948,48,60.71,0,8.05,IS,1681914179
154,Broken Hill,-31.95,141.4333,51,56.05,3,12.95,AU,1681914179
155,Qaqortoq,60.7167,-46.0333,90,33.19,89,4.5,GL,1681914179
156,Mana,5.6592,-53.7767,78,81.1,22,6.44,GF,1681914179
157,La Ronge,55.1001,-105.2842,69,28.65,100,13.8,CA,1681914179
158,Cockburn Town,21.4612,-71.1419,80,77.99,60,14.43,TC,1681914179
159,Tadine,-21.55,167.8833,78,77.32,69,2.89,NC,1681914180
160,Puerto Armuelles,8.2833,-82.8667,66,84.18,100,1.88,PA,1681914180
161,Stephenville,32.2207,-98.2023,82,71.04,100,16.11,US,1681914180
162,Aleg,17.0481,-13.9209,13,96.49,99,12.1,MR,1681914180
163,Saipan,15.1355,145.701,100,79.65,40,13.8,MP,1681914180
164,Vila Velha,-20.3297,-40.2925,75,86.95,20,5.75,BR,1681914180
165,Mount Pearl,47.5166,-52.7813,84,34.83,100,20.71,CA,1681914156
166,Promyshlennovskiy,55.4833,86.2,86,27.37,100,7.99,RU,1681914086
167,Lazaro Cardenas,17.9583,-102.2,72,75.9,100,2.42,MX,1681914181
168,Lamar,33.6668,-95.5836,94,64.71,100,13.8,US,1681914181
169,Alice Springs,-23.7,133.8833,82,53.15,0,8.05,AU,1681914181
170,Arkhangel'Sk,64.5401,40.5433,60,42.12,40,4.47,RU,1681914182
171,Iqaluit,63.7506,-68.5145,85,10.13,100,3.44,CA,1681914182
172,Itaituba,-4.2761,-55.9836,79,86.16,75,4.61,BR,1681913990
173,Bilibino,68.0546,166.4372,95,18.68,100,2.71,RU,1681914182
174,San Patricio,28.017,-97.5169,79,75.33,91,13.58,US,1681914182
175,Poronaysk,49.2167,143.1167,80,39.63,63,5.48,RU,1681914182
176,Arraial Do Cabo,-22.9661,-42.0278,94,75.06,75,11.5,BR,1681914183
177,Chak Azam Sahu,30.75,73.0333,37,81.14,0,7.4,PK,1681914183
178,Konarka,19.9,86.1167,77,90.0,16,13.02,IN,1681914043
179,Key West,24.5557,-81.7826,59,78.12,20,10.36,US,1681913949
180,Bel Ombre,-4.6167,55.4167,83,82.24,75,4.61,SC,1681914183
181,Ola,59.5833,151.2833,75,25.63,100,10.76,RU,1681914183
182,Saint-Joseph,-21.3667,55.6167,81,80.19,65,12.01,RE,1681914184
183,Inari,68.906,27.0288,81,48.4,100,13.0,FI,1681914184
184,Macapa,0.0389,-51.0664,79,84.18,40,6.91,BR,1681914184
185,Westport,41.1415,-73.3579,54,47.88,100,10.36,US,1681914129
186,Lihue,21.9789,-159.3672,85,67.35,19,8.39,US,1681914184
187,Hilo,19.7297,-155.09,95,71.04,40,9.22,US,1681914184
188,Tazacorte,28.629,-17.9293,77,69.15,75,13.8,ES,1681914185
189,Sarkand,45.41,79.9186,41,38.37,31,3.29,KZ,1681914185
190,Monrovia,6.3005,-10.7969,68,89.37,71,9.26,LR,1681913847
191,Ponta Delgada,37.7333,-25.6667,82,61.52,75,21.85,PT,1681914185
192,Punta Arenas,-53.15,-70.9167,87,50.11,75,28.77,CL,1681913948
193,Bothaville,-27.3887,26.617,13,84.15,0,3.0,ZA,1681914185
194,Fonte Boa,-2.4959,-66.2662,66,84.38,91,6.46,BR,1681914186
195,Dudinka,69.4058,86.1778,95,4.62,100,2.42,RU,1681914186
196,Kolonia Town,6.964,158.206,94,78.8,100,3.44,FM,1681914186
197,Remire-Montjoly,4.9167,-52.2667,94,78.84,100,2.3,GF,1681914186
198,Avarua,-21.2078,-159.775,94,77.05,75,12.66,CK,1681914186
199,Banfora,10.6333,-4.7667,24,100.62,60,7.27,BF,1681914187
200,Cordele,31.9635,-83.7824,52,71.98,0,0.0,US,1681914187
201,Sarangani,5.4033,125.4636,76,82.78,1,8.97,PH,1681914190
202,Gorontalo,0.5412,123.0595,95,76.48,66,2.75,ID,1681914190
203,Onega,63.9061,38.1404,91,35.94,100,3.51,RU,1681914190
204,Ceeldheer,3.8488,47.1806,59,86.99,100,11.88,SO,1681914191
205,Cidreira,-30.1811,-50.2056,43,65.26,12,21.03,BR,1681914191
206,Antsiranana,-12.2787,49.2917,65,83.16,40,18.41,MG,1681914191
207,Abu Road,24.4833,72.7833,23,88.39,100,8.97,IN,1681914191
208,Vadso,70.0744,29.7487,70,42.96,75,19.57,NO,1681914192
209,Vorgashor,67.5833,63.95,96,25.11,98,8.99,RU,1681914192
210,Rawson,-43.3002,-65.1023,53,64.85,38,14.72,AR,1681913932
211,Tarawa,1.419,172.984,83,82.49,20,4.61,KI,1681914192
212,Vytegra,61.0064,36.4481,89,39.29,85,4.41,RU,1681914193
213,Papao,-17.75,-149.55,82,78.48,71,16.8,PF,1681914193
214,Tazovsky,67.4667,78.7,96,17.08,100,5.21,RU,1681914193
215,Conde,-7.2597,-34.9075,66,87.26,75,6.91,BR,1681914193
216,Felipe Carrillo Puerto,19.5833,-88.05,69,79.11,78,3.83,MX,1681914193
217,Fort Bragg,35.139,-79.006,49,71.19,0,3.0,US,1681914193
218,Walvis Bay,-22.9575,14.5053,45,80.37,54,18.75,NA,1681914194
219,Jamestown,42.097,-79.2353,79,37.47,100,14.97,US,1681914152
220,Shiqian,27.5225,108.2281,93,68.49,2,3.42,CN,1681914194
221,Isafjordur,66.0755,-23.124,93,44.64,75,5.75,IS,1681914194
222,Ust-Nera,64.5667,143.2,99,6.51,100,5.5,RU,1681914195
223,Dwarka,22.2394,68.9678,65,82.6,2,15.32,IN,1681914195
224,Maragogi,-9.0122,-35.2225,66,85.78,97,8.63,BR,1681914195
225,Zwedru,6.0667,-8.1281,42,94.82,98,4.79,LR,1681914195
226,Colonia,50.9333,6.95,29,59.95,0,19.57,DE,1681914155
227,Pasaje,-3.3333,-79.8167,84,83.91,100,1.43,EC,1681914173
228,Pampierstad,-27.7832,24.6877,10,83.91,0,9.37,ZA,1681914196
229,Danjiangkou,32.5428,111.5086,72,72.43,0,4.59,CN,1681914196
230,Gadzhiyevo,69.2551,33.3362,98,37.62,100,16.22,RU,1681914196
231,Urucara,-2.5364,-57.76,67,83.97,100,4.21,BR,1681914196
232,Carnarvon,-24.8667,113.6333,36,78.78,83,11.39,AU,1681914196
233,Puerto Carreno,6.189,-67.4859,51,87.78,0,9.22,CO,1681914197
234,San Luis De La Loma,17.2706,-100.8939,47,80.87,97,0.63,MX,1681914197
235,Richards Bay,-28.783,32.0377,49,82.8,0,13.33,ZA,1681914198
236,Longyearbyen,78.2186,15.6401,73,21.04,100,14.97,SJ,1681914198
237,Kyosai,34.8503,128.5886,94,62.56,98,0.34,KR,1681914198
238,Nyurba,63.2842,118.3319,94,9.27,77,2.93,RU,1681914198
239,Fort Mcmurray,56.7268,-111.381,86,33.31,100,14.97,CA,1681914199
240,Juan Griego,11.0817,-63.9655,58,89.73,42,18.41,VE,1681914199
241,Isangel,-19.55,169.2667,80,77.59,66,5.46,VU,1681914199
242,Tamanrasset,22.785,5.5228,7,89.51,0,4.61,DZ,1681914200
243,Aswan,24.0934,32.907,7,102.09,0,10.09,EG,1681914200
244,Hithadhoo,-0.6,73.0833,68,84.25,100,4.12,MV,1681914200
245,Celestun,20.8667,-90.4,69,75.76,4,11.79,MX,1681914200
246,Nar'Yan-Mar,67.6713,53.087,91,29.14,100,12.71,RU,1681914200
247,Polyarnyy,69.1989,33.4478,96,38.39,99,16.51,RU,1681914200
248,Hamilton,39.1834,-84.5333,49,56.16,0,10.36,US,1681914030
249,Naze,28.3667,129.4833,95,63.52,100,24.38,JP,1681914201
250,Amherst,41.3978,-82.2224,70,44.89,0,4.61,US,1681914201
251,Spring Creek,40.7266,-115.5859,36,16.7,10,1.01,US,1681914201
252,Tomatlan,19.9333,-105.25,54,73.65,62,1.63,MX,1681914201
253,Viedma,-40.8135,-62.9967,53,61.27,32,11.07,AR,1681914191
254,Tra Mhor,52.1624,-7.1524,70,55.11,40,18.41,IE,1681914202
255,Lyantonde,-0.4031,31.1572,70,75.97,54,5.03,UG,1681914202
256,Atafu Village,-8.5421,-172.5159,70,82.29,18,2.13,TK,1681914202
257,Zimovniki,47.1483,42.4633,57,61.39,100,12.44,RU,1681914202
258,Cienfuegos,22.1461,-80.4356,65,82.54,20,9.22,CU,1681914202
259,Micheweni,-4.9667,39.8333,83,80.01,92,11.21,TZ,1681914202
260,Tutong,4.8,114.65,87,80.02,83,3.0,BN,1681914203
261,I-N-Salah,27.1935,2.4607,10,97.93,97,22.91,DZ,1681914203
262,Tabalosos,-6.35,-76.6833,72,73.6,89,1.03,PE,1681914203
263,Dryden,49.7833,-92.7503,40,28.69,75,9.22,CA,1681914203
264,Odienne,9.51,-7.5692,19,102.34,41,7.45,CI,1681914203
265,Kolonia,50.9333,6.95,29,59.95,0,19.57,DE,1681914115
266,Thompson,55.7435,-97.8558,67,15.96,100,6.91,CA,1681914204
267,Amga,60.8953,131.9608,98,20.48,100,0.51,RU,1681914204
268,Badger,64.8,-147.5333,73,11.07,40,11.5,US,1681914204
269,Gamba,-2.65,10.0,74,84.88,63,7.49,GA,1681914204
270,Elverum,60.8819,11.5623,73,46.4,29,4.76,NO,1681914204
271,Jucurutu,-6.0339,-37.0203,48,89.82,100,3.04,BR,1681914204
272,Ust'-Ilimsk,58.0006,102.6619,87,17.24,100,9.42,RU,1681914205
273,Hammerfest,70.6634,23.6821,93,39.65,75,21.85,NO,1681914205
274,Sumenep,-7.0167,113.8667,80,80.08,19,5.84,ID,1681914205
275,Tsaratanana,-16.7833,47.65,76,79.32,49,7.25,MG,1681914205
276,Nelson Bay,-32.7167,152.15,90,63.21,92,5.01,AU,1681914205
277,East London,-33.0153,27.9116,58,86.94,0,4.61,ZA,1681914206
278,Manhuacu,-20.2581,-42.0336,63,81.5,100,10.8,BR,1681914206
279,Hameenlinna,60.996,24.4643,44,55.15,16,6.11,FI,1681914206
280,Usogorsk,63.4106,48.6872,93,34.86,100,4.36,RU,1681914207
281,Nadym,65.5333,72.5167,92,23.52,98,5.14,RU,1681914112
282,Tegueste,28.5167,-16.3167,70,65.97,20,12.66,ES,1681914207
283,Enewetak,11.3474,162.3373,82,79.16,100,23.44,MH,1681914207
284,Huarmey,-10.0681,-78.1522,80,76.15,93,7.76,PE,1681914207
285,Gardnerville Ranchos,38.8882,-119.7413,64,24.84,0,1.01,US,1681914207
286,Chinde,26.8418,88.0763,24,73.65,3,6.46,NP,1681914208
287,Dazhong,33.1997,120.4578,96,59.68,78,7.9,CN,1681914208
288,Gaspe,48.8334,-64.4819,75,43.02,75,9.22,CA,1681914208
289,Lincoln,40.8,-96.667,78,69.01,100,11.5,US,1681914028
290,San Angelo,31.4638,-100.437,76,72.3,20,16.11,US,1681913553
291,Rancho Palos Verdes,33.7445,-118.387,87,51.48,4,1.99,US,1681913954
292,Hermanus,-34.4187,19.2345,65,69.8,100,3.83,ZA,1681914209
293,Griffith,41.5284,-87.4237,47,51.84,40,14.97,US,1681914209
294,Banda Aceh,5.5577,95.3222,79,82.26,71,8.48,ID,1681914209
295,Marsh Harbour,26.5412,-77.0636,66,73.62,100,13.69,BS,1681914209
296,Jertih,5.7336,102.4897,88,78.85,94,3.53,MY,1681914209
297,Broome,42.2506,-75.833,80,37.74,100,10.36,US,1681914209
298,Kasongo-Lunda,-6.4667,16.8167,69,84.6,78,0.96,CD,1681914210
299,Saint-Pierre,-21.3393,55.4781,74,81.97,0,9.22,RE,1681914210
300,Kegen,43.0197,79.2203,57,33.48,86,3.87,KZ,1681914210
301,Sao Joao Da Barra,-21.6403,-41.0511,58,87.89,84,9.08,BR,1681914210
302,Sokoto,13.0609,5.239,16,105.8,96,5.53,NG,1681914210
303,Vizinga,61.0749,50.1031,53,47.89,0,4.16,RU,1681914211
304,Zaozersk,69.4005,32.4476,98,37.96,99,17.22,RU,1681914211
305,Piacabucu,-10.4056,-36.4344,54,90.48,100,7.99,BR,1681914211
306,Crane,31.3974,-102.3501,74,67.57,73,15.17,US,1681914211
307,Paramonga,-10.6667,-77.8333,80,75.13,100,7.38,PE,1681914211
308,Maurage,50.4577,4.098,54,61.39,85,14.0,BE,1681914212
309,Luanda,-8.8368,13.2343,74,89.6,20,16.11,AO,1681914212
310,Vokhtoga,58.8147,41.0461,39,55.74,94,6.87,RU,1681914213
311,Daru,-9.0763,143.2092,83,78.31,81,5.26,PG,1681914213
312,Iskateley,67.6803,53.1512,91,28.99,100,12.66,RU,1681914213
313,Channarayapatna,12.9044,76.3917,27,85.26,3,3.09,IN,1681914214
314,Anna Regina,7.2644,-58.5077,63,83.07,87,6.71,GY,1681914214
315,Eyl,7.9803,49.8164,59,85.5,13,12.57,SO,1681914214
316,San Luis,-33.295,-66.3356,32,65.55,29,7.61,AR,1681913924
317,Zheleznogorsk,52.331,35.3711,43,56.98,79,15.32,RU,1681914215
318,Puerto Baquerizo Moreno,-0.9,-89.6,94,77.99,75,2.3,EC,1681914215
319,Santa Rosa,14.3122,121.1114,80,84.49,2,5.35,PH,1681914215
320,Grimstad,58.3405,8.5934,58,57.11,16,8.84,NO,1681914215
321,Puerto Aysen,-45.4,-72.7,94,55.44,100,6.91,CL,1681914215
322,Horta,38.5333,-28.6333,91,59.02,75,23.02,PT,1681913938
323,Lompoc,34.6391,-120.4579,69,44.13,20,20.0,US,1681914215
324,Vicente Noble,18.3844,-71.1801,70,83.8,20,6.91,DO,1681914216
325,Mosjoen,65.836,13.1908,53,50.52,75,4.61,NO,1681914216
326,Vrontados,38.4089,26.1328,77,62.46,40,5.75,GR,1681914216
327,Kencong,-8.2833,113.3667,88,78.08,58,1.72,ID,1681914216
328,Jose De Freitas,-4.7564,-42.5756,65,83.35,90,1.32,BR,1681914216
329,Neryungri,56.6709,124.6491,91,9.48,98,3.33,RU,1681914217
330,Weno,7.4515,151.8468,88,79.07,100,23.85,FM,1681914217
331,Strezhevoy,60.7333,77.5889,88,23.61,73,9.57,RU,1681914217
332,Lloydminster,53.2835,-110.0016,80,30.42,100,13.8,CA,1681914217
333,Nhlangano,-27.1167,31.2,25,76.17,0,7.2,SZ,1681914218
334,Lajere,11.9797,11.4443,7,108.14,75,5.88,NG,1681914218
335,Gerash,27.6652,54.1371,26,84.34,86,10.13,IR,1681914218
336,Samal,7.0744,125.7083,79,84.27,100,9.22,PH,1681914218
337,Acajutla,13.5928,-89.8275,61,84.13,8,0.63,SV,1681914218
338,Taoudenni,22.6783,-3.9836,12,101.44,14,14.07,ML,1681914218
339,Rio Grande,-32.035,-52.0986,50,60.91,100,21.32,BR,1681914219
340,Hanceville,34.0607,-86.7675,57,68.04,0,2.98,US,1681914219
341,Trinidad,-14.8333,-64.9,74,85.98,75,4.61,BO,1681914219
342,Illizi,26.4833,8.4667,6,95.56,0,12.08,DZ,1681914219
343,Greymouth,-42.4667,171.2,93,53.37,47,3.56,NZ,1681914220
344,Raychikhinsk,49.7838,129.4121,36,40.64,100,8.19,RU,1681914220
345,Pisco,-13.7,-76.2167,73,73.45,0,11.5,PE,1681914220
346,Vorkuta,67.5,64.0,96,25.56,98,8.66,RU,1681914220
347,Guiratinga,-16.3494,-53.7583,81,77.85,100,7.14,BR,1681914220
348,Tolanaro,-25.0319,46.9987,83,78.87,40,8.05,MG,1681914220
349,Kone,-21.0595,164.8658,90,70.3,0,0.83,NC,1681914221
350,Quellon,-43.1167,-73.6167,100,55.65,100,5.75,CL,1681914221
351,Cassilandia,-19.1133,-51.7342,93,72.66,100,7.31,BR,1681914221
352,Port Antonio,18.18,-76.4612,70,82.98,1,5.95,JM,1681914221
353,Arteche,12.2645,125.4048,89,78.98,50,5.95,PH,1681914222
354,Uniao Dos Palmares,-9.1628,-36.0319,45,87.39,94,5.86,BR,1681914222
355,Siwa Oasis,29.2041,25.5195,23,83.7,0,14.85,EG,1681914222
356,Linqiong,30.4159,103.4609,69,84.02,100,3.94,CN,1681914224
357,Durban,-29.8579,31.0292,78,79.02,0,3.0,ZA,1681914046
358,Aur,8.1499,171.1687,81,81.0,97,16.96,MH,1681914225
359,Hancheng,32.5186,112.3522,78,71.01,0,7.14,CN,1681914225
360,Sisimiut,66.9395,-53.6735,81,18.82,100,4.83,GL,1681914225
361,Lata,40.1629,-8.3327,38,79.93,0,11.07,PT,1681914225
362,Grootfontein,-19.5667,18.1167,18,86.23,32,9.71,NA,1681914225
363,Olinda,-8.0089,-34.8553,58,87.53,40,9.22,BR,1681914189
364,Tayu,-6.5397,111.0518,86,79.99,26,5.73,ID,1681914226
365,Harper,4.375,-7.7169,70,84.58,100,6.98,LR,1681914226
366,Port Augusta,-32.5,137.7667,60,58.73,2,12.41,AU,1681914226
367,Boa Vista,2.8197,-60.6733,58,84.18,75,13.8,BR,1681914226
368,Inarajan Village,13.2736,144.7484,81,80.26,98,12.28,GU,1681914227
369,Ibb,13.9667,44.1833,46,71.69,87,4.12,YE,1681914227
370,Vilyuysk,63.7553,121.6247,99,8.35,65,3.67,RU,1681914227
371,Namie,37.4833,141.0,92,48.02,2,3.78,JP,1681914227
372,Sao Felix Do Xingu,-6.6447,-51.995,83,78.15,100,2.15,BR,1681914227
373,Protaras,35.0125,34.0583,74,71.94,100,9.33,CY,1681914227
374,Eastbourne,50.7687,0.2845,73,58.5,41,3.0,GB,1681914228
375,Villa Hidalgo,21.6667,-102.6,26,56.17,76,2.68,MX,1681914228
376,Papagaios,-19.4492,-44.7478,64,80.28,100,11.43,BR,1681914228
377,Mansa,29.9833,75.3833,27,86.68,95,9.8,IN,1681914228
378,Rouyn-Noranda,48.2398,-79.0288,74,23.09,100,9.22,CA,1681914228
379,Santana,-0.0583,-51.1817,79,84.38,40,6.91,BR,1681914228
380,Klaksvik,62.2266,-6.589,83,54.52,72,13.6,FO,1681914228
381,Margate,51.3813,1.3862,63,53.46,13,8.01,GB,1681914229
382,Kiunga,-6.1219,141.2906,99,72.5,70,0.04,PG,1681914229
383,"Laikit, Laikit Ii (Dimembe)",1.4792,124.9735,89,76.05,20,2.3,ID,1681914229
384,Shohimardon,39.9839,71.8028,74,50.77,81,2.42,UZ,1681914229
385,Kathu,7.9178,98.3332,76,84.02,12,11.43,TH,1681914229
386,Leticia,-4.2153,-69.9406,84,84.25,40,6.91,CO,1681914229
387,Khovd,48.0056,91.6419,20,34.21,0,11.07,MN,1681914230
388,Beatrice,40.2681,-96.747,77,68.14,100,11.5,US,1681914230
389,Sao Paulo De Olivenca,-3.3783,-68.8725,88,80.55,95,3.89,BR,1681914230
390,Plastun,44.7561,136.2939,74,44.47,100,3.24,RU,1681914230
391,Blagoevgrad,42.0167,23.1,51,60.3,88,5.01,BG,1681914230
392,Iquique,-20.2208,-70.1431,70,69.84,45,5.21,CL,1681914230
393,Port Lincoln,-34.7333,135.8667,62,58.89,98,7.49,AU,1681914016
394,Lae,-6.7221,146.9847,91,77.09,100,5.06,PG,1681914231
395,Princeville,45.7668,-61.2985,91,47.5,100,6.91,CA,1681914231
396,Sylhet,24.5,91.6667,42,88.36,47,5.86,BD,1681914231
397,Vershino-Darasunskiy,52.35,115.5167,82,20.86,100,18.5,RU,1681914231
398,Lujan,-34.5703,-59.105,57,62.28,69,15.01,AR,1681914003
399,Mossel Bay,-34.1831,22.146,78,69.73,100,6.58,ZA,1681914232
400,Tres De Maio,-27.7733,-54.24,38,66.97,5,17.36,BR,1681914232
401,Dharamsala,32.2419,76.3213,74,55.36,100,10.87,IN,1681914232
402,Rockland,41.1668,-74.0496,57,46.42,33,1.01,US,1681914060
403,Eirunepe,-6.6603,-69.8736,81,82.62,98,3.31,BR,1681914233
404,Veraval,20.9,70.3667,63,83.08,0,18.68,IN,1681914233
405,Purbalingga,-7.3881,109.3639,91,78.94,81,1.43,ID,1681914233
406,Redencao,-4.2258,-38.7306,70,84.74,100,4.74,BR,1681914233
407,Kharp,66.8014,65.8081,90,24.82,10,6.35,RU,1681914233
408,Glen Innes,-29.7333,151.7333,95,50.13,98,5.68,AU,1681914233
409,Vila Do Maio,15.1333,-23.2167,77,79.59,100,18.7,CV,1681914234
410,Porto Seguro,-16.4497,-39.0647,62,90.12,75,12.66,BR,1681914234
411,Xilin Hot,43.9667,116.0333,39,45.12,100,11.97,CN,1681914234
412,Santiago De Cuba,20.0247,-75.8219,65,82.51,40,6.91,CU,1681914234
413,Cromer,52.9312,1.2989,69,54.34,18,22.41,GB,1681914234
414,Kendari,-3.945,122.4989,95,76.68,100,2.73,ID,1681914235
415,Grajau,-5.8194,-46.1386,81,79.65,100,2.82,BR,1681914235
416,Presidente Franco,-25.5333,-54.6167,64,70.3,40,6.91,PY,1681914235
417,Svetlyy,54.675,20.1347,75,60.85,79,16.91,RU,1681914235
418,Nioki,-2.7167,17.6833,44,91.92,100,3.44,CD,1681914235
419,Shahr-E Babak,30.1165,55.1186,18,69.66,55,11.12,IR,1681914235
420,Las Tablas,7.7667,-80.2833,66,82.4,68,12.1,PA,1681914240
421,Chumphon,10.3333,98.8333,83,75.25,5,3.33,TH,1681914240
422,Whitehorse,60.7161,-135.0538,93,30.97,75,2.3,CA,1681914240
423,Beltran,-27.8291,-64.061,56,73.04,0,4.29,AR,1681914240
424,Kandy,7.2955,80.6356,92,73.47,11,3.06,LK,1681914241
425,Bischofswerda,51.1277,14.1797,91,43.86,93,12.08,DE,1681914241
426,Atar,20.5169,-13.0499,12,91.71,2,13.98,MR,1681914241
427,Gonzaga,44.9498,10.8209,43,72.55,2,4.21,IT,1681914241
428,Umea,63.8284,20.2597,50,49.93,0,6.91,SE,1681914241
429,Castillos,-34.1667,-53.8333,84,53.11,100,14.2,UY,1681914242
430,Itoman,26.1247,127.6694,96,71.44,75,16.11,JP,1681914243
431,Ronne,55.1009,14.7066,40,48.11,75,28.77,DK,1681914243
432,Ypsonas,34.6884,32.9574,83,67.17,0,8.05,CY,1681914243
433,Nandikotkur,15.8667,78.2667,16,98.26,50,12.93,IN,1681914243
434,Moussoro,13.6408,16.4901,9,109.76,8,4.94,TD,1681914243
435,Makinsk,52.6292,70.4169,68,33.84,92,5.55,KZ,1681914244
436,Keetmanshoop,-26.5833,18.1333,18,88.88,51,13.89,NA,1681914244
437,Yeppoon,-23.1333,150.7333,72,69.58,77,13.98,AU,1681914244
438,Aasiaat,68.7098,-52.8699,76,18.0,99,8.32,GL,1681914245
439,Tchintabaraden,15.8969,5.7985,6,105.46,13,3.36,NE,1681914245
440,Dazhou,31.2159,107.5009,68,77.18,14,3.22,CN,1681914246
441,Tateyama,34.9833,139.8667,91,63.5,100,4.07,JP,1681914104
442,Island Harbour,50.724,-1.2758,77,60.64,1,20.47,GB,1681914246
443,Los Frentones,-26.4077,-61.4137,53,75.29,0,6.17,AR,1681914246
444,Harstad,68.799,16.5293,100,42.91,100,20.0,NO,1681914246
445,Valparaiso,-33.0393,-71.6273,28,73.04,0,4.61,CL,1681914247
446,Angaur State,6.906,134.13,73,84.09,15,11.34,PW,1681914247
447,Cannonvale,-20.2833,148.7,76,78.19,1,9.4,AU,1681914247
448,Hasaki,35.7333,140.8333,87,59.47,100,14.76,JP,1681914248
449,Yinzhu,35.8786,119.9753,93,52.74,58,8.63,CN,1681914248
450,San Fernando De Apure,7.8878,-67.4724,48,87.58,100,11.61,VE,1681914248
451,Campo Verde,-20.4167,-54.0667,67,72.54,6,8.93,BR,1681914248
452,Ghat,24.9647,10.1728,6,90.57,1,8.59,LY,1681914248
453,Culpeper,38.5004,-77.9664,57,56.25,0,4.0,US,1681914101
454,Hiratacho,35.4333,132.8167,94,60.82,100,4.38,JP,1681914249
455,Semenivka,52.1783,32.5818,43,59.13,93,14.74,UA,1681914249
456,Whiteville,34.3388,-78.7031,51,71.62,0,0.0,US,1681914249
457,Lerwick,60.1545,-1.1494,71,51.8,10,8.32,GB,1681914250
458,Prineville,44.2999,-120.8345,66,34.03,40,6.91,US,1681914250
459,Kunduz,36.75,68.75,49,58.23,98,0.94,AF,1681914251
460,Bellaire,29.7058,-95.4588,83,73.56,75,11.5,US,1681914251
461,Nantucket,41.2835,-70.0995,54,48.85,40,23.02,US,1681914149
462,Urumqi,43.801,87.6005,42,43.75,0,6.71,CN,1681914252
463,Saint-Philippe,-21.3585,55.7679,83,81.99,81,12.39,RE,1681914252
464,Khorixas,-20.3667,14.9667,22,89.08,97,6.24,NA,1681914252
465,Likiep,9.8251,169.3107,81,80.53,100,17.76,MH,1681914253
466,Pico Truncado,-46.7949,-67.9573,53,62.35,0,21.14,AR,1681914253
467,Thunder Bay,48.4001,-89.3168,43,31.91,75,4.61,CA,1681914176
468,Tralee,52.2704,-9.7026,54,57.45,75,14.97,IE,1681914253
469,Akrehamn,59.2667,5.1833,54,52.05,0,12.66,NO,1681914253
470,Turpan,42.9333,89.1667,11,60.3,88,3.58,CN,1681914253
471,Kampot,10.6167,104.1833,79,84.25,22,6.58,KH,1681914253
472,Al Jubayl,27.0112,49.6583,40,86.02,100,5.06,SA,1681914254
473,Al Lagowa,11.4,29.1333,5,103.82,5,9.55,SD,1681914254
474,Sandnessjoen,66.0217,12.6316,57,48.36,75,6.91,NO,1681914256
475,Manokwari,-0.8667,134.0833,83,78.78,100,6.24,ID,1681914256
476,Howrah,22.5892,88.3103,79,91.4,20,11.5,IN,1681914256
477,Labrador City,52.9463,-66.9114,87,35.51,100,6.91,CA,1681914257
478,Flying Fish Cove,-10.4217,105.6791,80,80.98,35,18.05,CX,1681914257
479,Puerto San Jose,13.9256,-90.8244,62,84.31,1,5.57,GT,1681914257
480,Caracal,44.1167,24.35,57,65.21,93,6.15,RO,1681914257
481,Carlsbad,33.1581,-117.3506,89,51.3,0,3.44,US,1681913509
482,Qamdo,31.1667,97.2333,36,44.01,86,0.74,CN,1681914257
483,Sochi,43.6,39.7303,69,69.1,92,4.88,RU,1681913986
484,Korla,41.7597,86.1469,21,53.37,100,11.52,CN,1681914258
485,Ballina,-28.8667,153.5667,63,60.78,62,10.65,AU,1681914258
486,Phan Rang-Thap Cham,11.5667,108.9833,84,79.54,100,3.6,VN,1681914258
487,Turgen,43.4006,77.5933,63,41.13,46,4.14,KZ,1681914258
488,Zvishavane,-20.3267,30.0665,32,78.94,0,9.33,ZW,1681914258
489,Bardai,11.65,7.2333,21,96.85,97,9.53,NG,1681914259
490,Wotje,9.4543,170.2367,81,80.38,100,17.38,MH,1681914259
491,Kharkhorin,47.1975,102.8238,18,29.23,17,5.73,MN,1681914259
492,Kisangani,0.5167,25.2,37,94.8,100,2.66,CD,1681914259
493,Dali,25.7,100.1833,41,64.18,0,7.31,CN,1681914259
494,Rugby,52.3709,-1.2642,66,57.11,91,17.94,GB,1681914260
495,Ciudad Melchor Muzquiz,27.8833,-101.5167,86,70.14,92,3.44,MX,1681914260
496,Nouadhibou,20.931,-17.0347,85,65.82,68,18.72,MR,1681914260
497,Commercy,48.75,5.5,70,65.1,96,13.18,FR,1681914260
498,Twon-Brass,4.3151,6.2418,75,84.56,71,10.71,NG,1681914260
499,Kerikeri,-35.2268,173.9474,96,67.91,100,1.01,NZ,1681914261
500,Benghazi,32.1167,20.0667,57,65.12,0,12.97,LY,1681914261
501,Puerto Deseado,-47.7503,-65.8938,56,63.43,71,19.39,AR,1681914261
502,Thohoyandou,-22.9456,30.485,26,79.25,0,6.44,ZA,1681914261
503,Salekhard,66.53,66.6019,89,23.25,81,4.47,RU,1681914256
504,Gumdag,39.2061,54.5906,11,72.99,3,21.45,TM,1681914262
505,Changping,40.2186,116.2197,39,67.64,66,5.14,CN,1681914263
506,Tura,25.5198,90.2201,22,83.53,0,3.8,IN,1681914263
507,Mugia,43.1041,-9.2179,69,61.03,6,6.6,ES,1681914263
508,Shalqar,47.8333,59.6,27,57.83,100,4.83,KZ,1681914222
509,Mangalia,43.8,28.5833,88,52.16,100,12.62,RO,1681914264
510,Mao,39.8885,4.2658,59,64.96,20,12.66,ES,1681914264
511,Alvorada,-12.48,-49.1247,69,83.77,99,4.0,BR,1681914264
512,Bambanglipuro,-7.95,110.2833,84,78.91,13,4.9,ID,1681914265
513,Bubaque,11.2833,-15.8333,71,80.08,39,5.88,GW,1681914266
514,Mbanza Kongo,-6.267,14.2401,75,81.61,97,2.06,AO,1681914266
515,Katsuura,35.1333,140.3,93,63.34,100,0.96,JP,1681914266
516,Izberbash,42.5696,47.8645,77,51.85,27,8.08,RU,1681914267
517,Labytnangi,66.6572,66.4183,89,21.29,50,4.09,RU,1681914268
518,Springbok,-29.6643,17.8865,23,77.38,100,17.6,ZA,1681914268
519,Copiapo,-27.3667,-70.3333,27,58.69,0,2.86,CL,1681914058
520,Linxia Chengguanzhen,35.6003,103.2064,31,52.9,100,12.01,CN,1681914268
521,Ljusdal,61.8288,16.0913,85,46.22,31,4.56,SE,1681914269
522,Laojunmiao,39.8333,97.7333,13,38.34,8,13.89,CN,1681914269
523,Reyes,-14.3167,-67.3833,74,85.96,75,9.22,BO,1681914269
524,Hell-Ville,-13.4,48.2667,72,85.87,40,4.61,MG,1681914269
525,Arinos,-15.9169,-46.1056,39,91.83,8,7.63,BR,1681914269
526,Dunedin,-45.8742,170.5036,95,54.81,11,1.99,NZ,1681914269
527,Lagoa,39.05,-27.9833,90,59.52,100,37.67,PT,1681914270
528,Dawei,14.0833,98.2,85,78.21,0,1.25,MM,1681914270
529,Yelizovo,53.1873,158.3805,69,37.11,75,11.18,RU,1681914255
530,San Juan,-31.5375,-68.5364,19,71.94,9,3.11,AR,1681914127
531,Pandan,14.0453,124.1694,88,79.7,6,6.29,PH,1681914271
532,Suva,-18.1416,178.4415,94,74.68,20,0.0,FJ,1681914271
533,Abancay,-13.6339,-72.8814,80,63.01,82,1.97,PE,1681914271
534,Chengzihe,45.3333,131.0667,62,49.28,100,3.96,CN,1681914271
535,Nema,57.5067,50.5011,57,51.08,74,5.59,RU,1681914272
536,Undurkhaan,47.3194,110.6556,30,29.19,5,0.6,MN,1681914272
537,Selma,36.5708,-119.6121,86,43.0,0,4.61,US,1681914272
538,Pyt-Yakh,60.7499,72.8582,82,29.84,46,8.99,RU,1681914272
539,Totness,5.8833,-56.3167,70,82.67,45,6.35,SR,1681914272
540,Nova Vicosa,-17.8919,-39.3719,57,89.89,9,6.96,BR,1681914272
541,Visakhapatnam,17.69,83.2093,74,85.89,66,4.61,IN,1681914273
542,Glenvale,-27.5648,151.9076,83,55.89,3,3.53,AU,1681914273
543,Bodo,67.28,14.405,76,46.44,75,20.71,NO,1681914273
544,That Phanom,16.9364,104.7104,31,92.68,1,9.62,TH,1681914273
545,Colon,9.3592,-79.9014,68,81.95,82,10.51,PA,1681914274
546,Mahina,-17.5065,-149.489,78,78.57,75,4.61,PF,1681914274
547,Korocha,50.8107,37.1953,65,52.52,100,14.65,RU,1681914274
548,Nieuw Nickerie,5.95,-56.9833,72,81.43,97,7.34,SR,1681914274
549,Tahla,34.0485,-4.428,33,79.11,54,8.95,MA,1681914274
550,Ta`U,-14.2336,-169.5144,75,83.03,100,18.75,AS,1681914275
551,Shingu,33.7333,135.9833,93,63.12,100,4.18,JP,1681914275
552,Inhambane,-23.865,35.3833,61,80.58,20,4.61,MZ,1681914275
553,Sawakin,19.1059,37.3321,45,85.8,0,10.8,SD,1681914275
554,Madalena,41.2162,-8.3345,56,70.29,0,10.38,PT,1681914276
555,Takoradi,4.8845,-1.7554,65,86.49,99,8.43,GH,1681914276
556,Yulinshi,38.2906,109.7494,23,62.35,16,28.61,CN,1681914276
557,Mutuipe,-13.2286,-39.5047,38,95.27,14,6.96,BR,1681914276
558,Lorengau,-2.0226,147.2712,83,80.02,97,6.42,PG,1681914276
559,Nizhniy Kuranakh,58.8353,125.4869,96,15.17,84,2.17,RU,1681914276
560,Byron Bay,-28.65,153.6167,68,60.71,34,10.96,AU,1681913904
561,Touros,-5.1989,-35.4608,65,86.58,77,9.55,BR,1681914278
562,Kideksha,56.4167,40.5167,33,58.08,70,5.64,RU,1681914278
563,Mar Del Plata,-38.0023,-57.5575,72,57.63,75,13.8,AR,1681914278
